"ID","ID","PARTNER_ID","NAME","ADDRESS","ADDRESS_2","CITY","STATE","POSTAL_CODE","COUNTRY","TIMEZONE","PHONE","EMAIL","FAX","LONGITUDE","LATITUDE","STATUS"
"a0WM0000005j8iqMAA","4e3c7237de52c800050035c5","4df2336617f2f9000100d1ac","Primary Location","Poststrasse 2","","D-40213 Düsseldorf","","","DE","America/Chicago","","","","-100.445882","39.78373","Item Updated"
"a0WM0000005j8iyMAA","50a9f1bf6731a5f357000544","50776d02fdab61000200021a","Location 1","Galerie Sho HK Masterpieces","Room 104-5, Wilson House, 19-27 Wyndham Street, Central","Hong Kong","","","","Asia/Hong_Kong","+852 2586 1018","info@g-sho.com","+852 2596 0723","114.162813","22.279328","Item Updated"
"a0WM0000005j8j0MAA","5124232076fa9f951800066b","512422ac819688e3f2000666","Archives of American Art","PO Box 37012","Victor Building, Suite 2200, MRC 937","Washington ","DC","20013-7012","","America/New_York","202-633-7940","","","-77.036646","38.894955","Item Updated"
"a0WM0000005j8l7MAA","5210776b139b213e54000381","520e2e79139b216bcf00015a","Athena Contemporânea","Av. Atlântica, 4240 - 210 | 211","Shopping Cassino Atlântico, Copacabana","Rio de Janeiro","RJ","22070-900","BR","America/Chicago","+55 21 2513-0239","","","-100.445882","39.78373","Item Updated"
"a0WM0000005j8lIMAQ","54f8b8627261694398663500","54f8b5c07261692cd8ac0100","e0c83fb0ef16ba31b22c14bbb6b1e90e","Hong Kong vault","","","","","","","","","","","","Item Updated"
"a0WM0000005j8lLMAQ","525fe1c2b202a37d4f0003db","5242ed6cb504f50afc000021","Primary Location","Windowist Tower, 17th Floor. Eski Büyükdere Cad. No: 26 Maslak","","Istanbul","","34467","TR","America/Chicago","+90 212 999 39 90","galeri@artnext.org","","-100.445882","39.78373","Item Updated"
"a0WM0000005j8mTMAQ","5257ebd9275b24468c00098b","52266992ebad64d4a600014a","Primary Location","The Gallery, The Street","Ightham","Sevenoaks","Kent","TN15 9HH","GB","America/Chicago","+ 44 (0)1732 882326","pca@prattcontemporaryart.co.uk","","-100.445882","39.78373","Item Updated"
"a0WM0000005j8mWMAQ","52dd75a17622dd28c7000096","52cc7798ebad64e73f0002f9","Primary Location","Colima 23, local B (Col. Roma Norte, Del. Cuauhtémoc)","","México D.F.","","06700","MX","America/Chicago","+52 (1) 55 4035 8072","info@mexicoenblanco.com","","-100.445882","39.78373","Item Updated"
"a0WM0000005j8mXMAQ","52ef8f5e275b24f388000483","52cc77b1ebad64e73f0003cb","Primary Location","Masia Mas Pujó (Camí de Mas Pujó, s/n)","","Santa Margarida i els Monjos","Barcelona","08730","ES","America/Chicago","+00 34 93 8180618","info@palmadotze.com","","-100.445882","39.78373","Item Updated"
"a0WM0000005j8mcMAA","533069be7622dd9b56000001","530d0fa0ebad64dfaa000009","Primary Location","SCES Trecho 02 Conjunto 31 - ASBAC","","Brasília - Distrito Federal","","70.200-002","BR","America/Chicago","+55 61 3878 9100","contato1@acasadaluzvermelha.com","","-100.445882","39.78373","Item Updated"
"a0WM0000005j8mhMAA","538e228ea09a67bbba000073","524ab7b28b3b81463c000f81","Location 1","Location 1","","","","","","","","","","","","Item Updated"
"a0WM0000005j8mkMAA","50138b0be27a0c0002000dd7","4f9afd5151d0480001000a27","Primary Location","Invalidenstraße 117","","Berlin","","10115","DE","Europe/Berlin","+49 30 28391154","galerie@mehdi-chouakri.com","+49 30 28 39 11 53","13.385391","52.531046","Item Updated"
"a0WM0000005j8juMAA","53d022597261690b4b590000","520e2c0a7622dd812c000004","Primary Location","Rua Antônio de Albuquerque, 377 conjunto 02 Savassi","","","Minas Gerais","30112-010","BR","America/Chicago","5531-32870110","murilo@murilocastro.com.br","","-100.445882","39.78373","Item Updated"
"a0WM0000005j8k2MAA","53dfc6ae7261692d83b10100","53dfc629726169567d2d0400","Cambridge Art Association","25 Lowell Street","","Cambridge","MA","02138","US","America/New_York","","","","-71.133434","42.375909","Item Updated"
"a0WM0000005j8k4MAA","53e351787261692195c40100","527a8516ebad6442e1000281","Primary Location","Birkenstraße 43","","Düsseldorf","","40233 ","DE","Europe/Berlin","","","","6.80223","51.227121","Item Updated"
"a0WM0000005j8oDMAQ","53e8b0877261696d2f450d00","53e38d287261692cf1160000","Primary Location","Gammel Strandvej 13","","Humlebaek","","3050","DK","Europe/Copenhagen","+45 49190719","mail@louisiana.dk","","12.542302","55.969177","Item Updated"
"a0WM0000005j8oPMAQ","53f77a6a72616972c5820500","5238bfe38b3b811f8a000a88","Primary Location","Rua Oscar Freire, nº 540","Jardins","São Paulo","SP","","BR","America/Chicago","+55 (11) 3082-1927","","","-100.445882","39.78373","Item Updated"
"a0WM0000005j8pTMAQ","53fe1ef17261694ddd700100","53d699ba776f722929d40000","Primary Location","Gothersgade 49","","Copenhagen","","1123 Kbh","DK","America/Chicago","+45 33 15 52 44 ","galleri@susanneottesen.dk","","-100.445882","39.78373","Item Updated"
"a0WM0000005j8pcMAA","5401d8ab72616923ccf00d00","53bc3827776f72484acd0000","Primary Location","Rua Senta Pua ,53,Ondina","","Salvador","Bahia","40080001","BR","America/Chicago","557133265633","contato@robertoalbangaleria.com.br","557133265633","-100.445882","39.78373","Item Updated"
"a0WM0000005j8pfMAA","51e06a3d275b2407470003f3","51c9fd78275b2466e900019b","Primary location","401 Broadway","Suite 1812","New York","New York","10013","","America/New_York","","","","-74.002574","40.71881","Item Updated"
"a0WM0000005j8pkMAA","54094cf872616941e2960500","53fcd2c272616971fb220900","Primary Location","PORT BAKU Towers 153 Neftchilar ave.,floor 23",""," Baku","","AZ1010","AZ","America/Chicago","009945051414","info@yarat.az","","-100.445882","39.78373","Item Updated"
"a0WM0000005j8plMAA","5409afc372616919d0920700","53ea6b80776f72507aba0000","Primary Location","Deputatskaya st, 1","","Voronezh","","394055","RU","America/Chicago","+74732763855","","","-100.445882","39.78373","Item Updated"
"a0WM0000005j8pmMAA","540a0a3472616918241b0100","53ea6b29776f72507a430000","Primary Location"," ","","Moscow",""," ","RU","Europe/Moscow","+7 499 391 8527","info@frolovgallery.ru","","37.32733","55.479205","Item Updated"
"a0WM0000005j8ppMAA","540f587d7261692d98060200","540f57d07261692d73c20100","HK Art Gallery Association","248 Hollywood Road","","Sheung Wan","","","HK","America/Chicago","+852 3480 5051","","","-100.445882","39.78373","Item Updated"
"a0WM0000005j8prMAA","5411d2d3726169116a0c0100","53dc1d80776f725611980000","Location 2","6 Trinity Street ","","Toronto","Ontario ","M5A 3C4","CA","America/Toronto","416-364-4955","info@thompsonlandry.com","416-364-4866","-79.359647","43.650176","Item Updated"
"a0WM0000005j8lTMAQ","5419ae337261692eca160100","5419a962726169485ead0000","Primary Location","Teatr Studio","Pl. Defilad 1","Warsaw","","00-901","PL","Europe/Warsaw","","","","21.006738","52.232637","Item Updated"
"a0WM0000005j8lWMAQ","541c6a9872616929ad160000","541a088c7261692d67370400","Primary Location","521 West 26th Street","4th Floor","New York","NY","10001","US","America/New_York","212 643 6353","info@jacoblewisgallery.com","","-74.00369","40.750216","Item Updated"
"a0WM0000005j8lXMAQ","541d9ff77261696547ef0200","52d6e339ebad647dd900083d","Primary Location","rue Commandant Marchand, 5","","Liège","","4000","US","America/Chicago","+3242271991","info@nadjavillenne.com","+3242271991","-99.018688","34.658404","Item Updated"
"a0WM0000005j8lZMAQ","51e05d898b3b811f77000341","5153536975db6c3334000337","Primary Location","C/O Ben Brown Fine Arts","21 Cork St, 1st Floor","London","","W1S 3LZ","GB","America/Chicago","44 020 7494 4664","","","-100.445882","39.78373","Item Updated"
"a0WM0000005j8lcMAA","52498f61c9dc24fbd2000048","50475d1556de6100020002e2","ICA Miami","4040 NE 2nd Avenue","Suite 200","Miami","FL","33137","US","America/New_York","305 901 5272","hello@icamiami.org","","-80.191495","25.813746","Item Updated"
"a0WM0000005j8ldMAA","542592e8726169070b160100","53d26dc9776f723ccc410000","Primary Location","1415 Adetokunbo Ademola Street Kuramo Waters, Victoria Island","","Lagos",""," P.O. Box 8054","NG","America/Chicago","+2348129555555","info@art21lagos.com","","-100.445882","39.78373","Item Updated"
"a0WM0000005j8liMAA","5430488e7261697a6d540a00","53dc1d44776f725611160000","Primary Location","Fazakas Gallery 145 West 6th Avenue","","Vancouver","British Columbia","V5Y 1K3","CA","America/Chicago","604-876-2729","info@fazakasgallery.com","","-100.445882","39.78373","Item Updated"
"a0WM0000005j8llMAA","543428997261691c2d3e0000","53d26ddb776f723ccc5f0000","Primary Location","26 Windy Ridge","","Nairobi","","00502","KE","Africa/Nairobi","","","","36.817245","-1.283253","Item Updated"
"a0WM0000005j8lpMAA","5435ae927261692d472f0500","53c06214776f726cc4ed0100","Primary Location","984 Queen Street West","","Toronto","Ontario","M6J 1H1","CA","America/Chicago","416-504-7142","gallery@propellerctr.com","","-100.445882","39.78373","Item Updated"
"a0WM0000005j8ltMAA","5437b5437261696240831500","53d26f19776f723ccc5c0100","Primary Location","336,Z.I.Sidi Ghanem","","Marrakech","","40000","MA","America/Chicago","","","","-100.445882","39.78373","Item Updated"
"a0WM0000005j8lvMAA","5438eb6c7261692304690600","54242ea2776f7225fb7c0000","Primary Location","Tomtom Mah.Bogazkesen cad.No 69 Tophane,  Beyo?lu","","Istanbul","","34433","TR","America/Chicago","+90 212 244 40 70","info@galerimcrd.com","+90 212 244 40 70","-100.445882","39.78373","Item Updated"
"a0WM0000005j8lwMAA","5439b3277261692304610d00","53c0626e776f726cc43a0200","Primary Location","2078 Halifax Street","","Regina","Saskatchewan","S4P 1T7","CA","America/Chicago","306.775.0330","slate@sasktel.net","","-100.445882","39.78373","Item Updated"
"a0WM0000005j8lyMAA","543d86457261692d64cc0200","52276823ebad6440790001af","Primary Location","133 Tecumseth Street","","Toronto","Ontario","M6J2H2","CA","America/Chicago","416.554.4112","info@georgiascherman.com","","-100.445882","39.78373","Item Updated"
"a0WM0000005j8m0MAA","5440206972616954a33e0200","53dc1d5f776f725611570000","Primary Location","2339 Granville Street","","Vancouver","BC","V6H 3G3","CA","America/Chicago","604 428 4248","info@initialgallery.com","","-100.445882","39.78373","Item Updated"
"a0WM0000005j8m2MAA","533aed491a1e86c5b700007e","53189290ebad643cc4000464","Primary Location","Franciszka?ska 6","","Warsaw","","00-214","PL","America/Chicago","+ 48 (22) 635 16 15, + 48 512 833 092","profile@fundacjaprofile.pl","","-100.445882","39.78373","Item Updated"
"a0WM0000005j8m3MAA","544782c972616950ae400400","5429a80f776f725660aa0100","Primary Location","27 Omirou street","","Athens","","10672","GR","Europe/Athens","+30 210 36 18 045","welcome@elikagallery.com","+30 210 36 18 045","23.737928","37.980571","Item Updated"
"a0WM0000005j8m4MAA","5558d27c7261692b04820000","5272a393275b24d81100002f","4802965f5efd7402e5f760400357825d","9,rue des Cascades","","Paris","","75020","FR","Europe/Paris","","","","2.390945","48.869602","Item Updated"
"a0WM0000005j8m6MAA","55d53dc57261692b5c00019a","55a95e2f776f726e3e0001ff","18c84e0aaef2e74ad62cede98ad41fb1","PO Box 544","","Double Bay","NSW","1360","AU","America/Chicago","+61 413 202 434","tim@timklingender.com","","-100.445882","39.78373","Item Updated"
"a0WM0000005kVddMAE","55f6f50e72616932670002e5","55d36f94726169049b000126","fe17afe224ec3630f9270397fb045a46","Himmelpfortgasse 8","","Vienna","","1010","AT","Europe/Vienna","","","","16.372817","48.205395","Item Updated"
"a0WM0000005j8sbMAA","544818477261692cdf940300","5429a832776f725660d20100","Primary Location","750 Fernandez Juncos Ave","Suite 1","San Juan","PR","00907","US","America/Chicago","+ 1 (787) 302 0071","info@agustinaferreyra.com","","-100.445882","39.78373","Item Updated"
"a0WM0000005j8scMAA","54494ad27261692d600c0300","5429a5fb776f725660570000","Primary Location","Unit 6 Bellenden Rd Business Centre","","London","","SE15 4RF","UK","Europe/London","","","","-0.127647","51.507322","Item Updated"
"a0WM0000005j8sdMAA","544952e372616950aaba1300","5411e016726169686fa90100","Primary Location","976 Madison Avenue","","New York","NY","10075","US","America/New_York","212 796 1224","shop@gagosian.com","","-73.963519","40.774828","Item Updated"
"a0WM0000005j8slMAA","54522155726169128dbd0300","5429a8f6776f725660580200","Primary Location","Soseaua  Alexandriei 90, Bloc L25, Etaj 2, Apartament 9, Sector 5","","Bucharest","","051538","RO","America/Chicago","0040724331201","dragos.olea@gmail.com","","-100.445882","39.78373","Item Updated"
"a0WM0000005j8smMAA","5262e6e7b202a36ef500045d","52266982ebad64d4a600010b","Primary Location","515 West 26th Street","Third Floor","New York","NY","11106","US","America/Chicago","2123970669","info@maryryangallery.com","","-100.445882","39.78373","Item Updated"
"a0WM0000005j8ssMAA","50635a7baea5bd00020003a5","50635a4a7fad370002000398","Primary Location","31 rue Dauphine","","Paris","","75006","FR","Europe/Paris","+33 (0)1 53 10 23 00","info@galeriekreo.com","","2.339549","48.854884","Item Updated"
"a0WM0000005j8tuMAA","545e807e7261691fddf60600","52276816ebad64407900010f","Primary Location","12 Ossington Avenue ","","Toronto ","Ontario ","M6J 2Y7","CA","America/Chicago","416 530 0444","info@angellgallery.com ","","-100.445882","39.78373","Item Updated"
"a0WM0000005j8tvMAA","50636498881572000200037d","506364717fad37000200040a","Primary Location","29 E. 73rd St.","","New York","NY","10021","US","America/New_York","212.535.7500","sylvana@jasonjacques.com","","-73.9649977","40.7727559","Item Updated"
"a0WM0000005j8u4MAA","546658507261692e17c10200","54510272776f72231ec80000","926fdf3900d2799e462811d504389609","147 Roebling Street","","Brooklyn","New York","11211","US","America/New_York","","","","-73.957591","40.714217","Item Updated"
"a0WM0000005j8u9MAA","546cff9d7261691616cc0200","546cf24f72616912290e0200","MDC Museum of Art and Design","600 Biscayne Blvd","","Miami","FL","33132 ","US","America/New_York","305.237.7700 ","","","-80.189669","25.780305","Item Updated"
"a0WM0000005j8uJMAQ","5474997d7261690b3f410500","54735a677261690435090500","d5b89410a58e55636a7de674c6c2e5d8","555 West 24th Street","","New York","NY","10011","US","America/New_York","","","","-74.005963","40.749428","Item Updated"
"a0WM0000005j8uNMAQ","54788cc77261692d4a1f0100","52d6e2f2ebad647dd900066e","898041058cd8e3ad5cd2cb015a40aa25","Plaza de la Drassana 15","","Palma de Mallorca","Illes Balears","07012","ES","Europe/Madrid","","","","2.64367","39.569197","Item Updated"
"a0WM0000005j8vZMAQ","548737d17261695fb78c0400","5483636c726169127bef0500","6ca3bbafdfb28183d1dd5fd0f402ea30","1 rue Saint-Charles","","Ajaccio","","20000","FR","Europe/Paris","","","","8.738681","41.917969","Item Updated"
"a0WM0000005j8njMAA","54990c517261690fe6e40100","54871cdd776f726921a20000","422430159f30bf25417df83193d6a86b","90 Goodman Road, Goodman Arts Centre, Blk M, #03-51, S439053.","","singapore","","439053","SG","Asia/Singapore","","","","103.852038","1.290453","Item Updated"
"a0WM0000005j8nuMAA","54ad413f726169103f980300","52b7bd99ebad6427d500041d","b81863c37552bd4c9d5b7a671a6a5f90","Cra 13 # 82-91","","Bogotá","Cundinamarca","0000","CO","America/Bogota","+57 314 4098032","lgmarteinternacional@gmail.com","","-74.729447","5.208423","Item Updated"
"a0WM0000005j8oRMAQ","540b62737261693f75df0700","540b619f7261690507330800","Savina Gallery","19/8, Bolshaya Konyushennaya","","St. Petersburg"," ","1910186","RU","Europe/Moscow","7 812 948-99-66","savinagallery.info@gmail.com","","30.315363","59.939366","Item Updated"
"a0WM0000005j8oSMAQ","54ae9275726169103fa10b00","52b7bb2bebad6427d500017a","510df9e80651a26525bfa67b1c3738dd","1-3 5 Flitcroft Street","","London","","WC2H 8DH","GB","Europe/London","+44 20 7836 6747","info@elmslesters.co.uk","+44 20 7379 0789","-0.127647","51.507322","Item Updated"
"a0WM0000005j8oTMAQ","54aebd037261690d403e0000","54aebc267261697c1a380000","Graywall","D-2813  Park Xii, Hangangro-1ga","","Yongsan-gu, Seoul","","Korea, 140-752","","Asia/Seoul","+82 (0)2 3675 0931","","","126.98087","37.532593","Item Updated"
"a0WM0000005j8oVMAQ","54afc7b37261696630030700","52b7bde8ebad6427d5000539","563ef3f75149a8f078fd8d3bc096c18f","167, DLF South Court Mall","Saket","New Delhi","","110017","IN","America/Chicago","+91 11 41408010","info@sanchitart.in","","-100.445882","39.78373","Item Updated"
"a0WM0000005j8oiMAA","54c142bc7261696dd8c80000","54b3fbc3776f7235d2810000","99bd7f3c5ea0c1e285b03840f7494b09","Rio Guadalquivir 123","","Garza Garcia, Monterrey","","66220","MX","America/Monterrey","","tony@salagaspar.com","","-100.331871","25.735986","Item Updated"
"a0WM0000005j8okMAA","54c1620d72616943de620100","54b40b06776f720e45200600","2fd72e4f1196b279062bce32a0613738","8687 Melrose Ave Space B226","","West Hollywood","CA","90069","US","America/Los_Angeles","","info@cmaygallery.com","","-118.361744","34.090009","Item Updated"
"a0WM0000005j8onMAA","54c6c3ef7261692c7b040600","54b40d08776f720e45d30600","0f66b4d773f23baf646bb0c6247a5676","756 North Palm Canyon Drive","","Palm Springs","CA","92262","US","America/Los_Angeles","(760) 656 - 7454","jorge@jorgemendezgallery.com","","-116.538948","33.834528","Item Updated"
"a0WM0000005j8ooMAA","54c7bcd37261692b51721a00","54c047577261693af3ec0800","8d3258d5d781b6aa19145aad8fb38081","Baja California 360 Colonia Condesa Delegación Cuauhtémoc","Delegación Cuauhtémoc","México D.F.","Mexico","06140","MX","America/Chicago","52 55 52 56 04 73","info@mob.com.mx","","-100.445882","39.78373","Item Updated"
"a0WM0000005j8osMAA","54c7f3f77261692c7f630a00","54c6c88b7261692b5e960200","6485b3c2a5836e6891e79ef67695e757","Bajío 231, the red door (corner of Manzanillo)","","Colonia Roma, Cuauhtemoc","","06760 DF","MX","America/Chicago","","","","-100.445882","39.78373","Item Updated"
"a0WM0000005j8ouMAA","54c904677261692baf9e0000","54b3fba5776f7235d2470000","e5a1f6e5d540d5d50e37506da1eff8bd","Londres 54, Col. Juárez","","Ciudad de México",""," 01810","MX","America/Mexico_City","55 14 27 10  ext. 104","","","-99.13321","19.43253","Item Updated"
"a0WM0000005j8ovMAA","54c92d427261694832d70000","54b3fc38776f7235d2130100","3a3c78a1f356071c72f175094077d422","Espoz 3125, Vitacura","","Santiago","","7630192","CL","Europe/Madrid","(+56 2) 29536210 ","galeria@galeriapready.cl","","-3.935128","42.616158","Item Updated"
"a0WM0000005j8p0MAA","54ca92fd7261692af15f0400","54b98e9872616942fb4f0700","e0b106f0d462a8ecac7716231cd929f6","297 Tenth Avenue ","","New York","NY","10001","US","America/New_York","212.563.4474","shop@paulkasmingallery.com ","","-74.002466","40.750414","Item Updated"
"a0WM0000005j8p6MAA","54ccb68e7261691ffa610400","52d6e354ebad647dd9000907","acbf3b11115248aa4be42e31794b660c","Huertas 61, Bajo Izquierda","","Madrid","","28014 ","ES","Europe/Madrid","+ 34 607 48 53 81","info@galeriarafaelortiz.com","","-3.703582","40.416705","Item Updated"
"a0WM0000005j8p9MAA","54cf87be7261692b6b670000","54ca6a297261692c403e0500","5fbd0267713418732bea0fc7d7b63abb","27 Connaught Street","","London","","W2 2AY","GB","Europe/London","+44 (0)207 402 6241","info@fiumanofineart.com","","-0.165355","51.514432","Item Updated"
"a0WM0000005j8pAMAQ","54d1112072616946d3a70100","52d6dea7ebad647dd90000b4","84a50479af9d2b75ccd0d4f6fbe36341","C/ Arco, 11","","Salamanca","España","37002","ES","Atlantic/Canary","+34 923 21 27 84","galeria@adoracalvo.net","","-16.263789","28.470318","Item Updated"
"a0WM0000005j8pBMAQ","54d21f6b7261693978750100","52d6e306ebad647dd90006f0","c6e3efba3a212fb8f384e00bdda9deff","Linienstraße 158","","Berlin","","10115","DE","Europe/Berlin","+49 30 883 43 54","info@kuckei-kuckei.de","+49 886 832 44","13.394522","52.527816","Item Updated"
"a0WM0000005j8pEMAQ","54d344ec7261690eef290800","52a88f78c9dc240efd00003d","51ac94109c68b1d325fb12a193c566f3","joaquín loriga, 9","","vigo","PONTEVEDRA","36203","ES","Europe/Madrid","","","","-8.721565","42.234991","Item Updated"
"a0WM0000005j8pHMAQ","54d45d1c72616946fcf80700","54d0ea44776f7263904e0000","5f91bfe4a5bf5c19cf6d79e0bd3e55f5","797 East Street,798 Art District, No.2 Jiu Xian Qiao Road., Chao Yang Dist.,","","Beijing","","100015","CN","Asia/Shanghai","+86 010 59789698","Jessica@longyibang.com","","116.391349","39.905909","Item Updated"
"a0WM0000005j8pJMAQ","54d539cb726169342d7d0000","54d0ec37776f726390ea0000","584b35d090e13832ca2cd7d434de1696","8th floor, Two Exchange Square","8 Connaught Place, Central","Hong Kong","","-","HK","Africa/Bangui","","","","22.927141","7.362564","Item Updated"
"a0WM0000005j8pKMAQ","54d641bb7261692bf5810200","54b40135776f720e454b0000","ed09cce319ba17109dfb8013b6992e81","59 Riding House Street","","London","","W1W 7EG","GB","Europe/London","+44 (0)20 7729 6591","info@tjboulting.com","","-0.141074","51.518426","Item Updated"
"a0WM0000005j8pNMAQ","54da0c477261692bc5750000","54cff011776f7259446e0000","7243edcd670420f18bc3c1dbbc30eeac","Via Malaga 4","","Milan","Italy/Lombardy","20143","IT","Europe/Rome","+390287280910","mc2gallery@gmail.com","+390287280910","12.674297","42.638426","Item Updated"
"a0WM0000005j8pxMAA","54db95647261693053cf0e00","52d6e354ebad647dd9000907","76d220735e78bc9a9dcf86a68ea079b4","Mármoles, 12","","Sevilla",""," 41004 ","ES","Europe/Madrid","+34 954 21 48 74","info@galeriarafaelortiz.com","","-5.990545","37.38813","Item Updated"
"a0WM0000005j8q1MAA","54dd45a47261696eec220100","54b3fb8d776f7235d21c0000","37e041689157860dc1631ac85643e531","Av. Saenz Peña 212, Barranco","","Lima","Lima","Lima 4","PE","America/Lima","(511) 373 0101","info@pepecobo.com","","-77.03058","-12.045969","Item Updated"
"a0WM0000005j8q5MAA","54de4b4772616936f1fc0000","534d9863ebad64ee0800046b","ff89b3796c1117615f549e10b9adb517","Bulnes 2705","","Buenos Aires","","1425","AR","America/Argentina/Buenos_Aires","+5411 20554944","info@miaumiauestudio.com","","-58.40663","-34.582058","Item Updated"
"a0WM0000005j8q8MAA","54e10000726169268de21100","52d6deaeebad647dd90000e6","390e92a0ed9af5c2e143fd74273fdf64","Reina Regente 2, bajo","","San Sebastián","","20003","ES","Europe/Madrid","+3 943 424046","info@altxerri.com","","-1.983889","43.322422","Item Updated"
"a0WM0000005j8qBMAQ","54e285ba7261690416340100","54e283d172616965eb200100","83f1c3fb8206dfc0c1174364bab23d0c","7 East 75th Street","1A","New York","NY","10021","US","America/New_York","","","","-73.964677","40.774239","Item Updated"
"a0WM0000005j8qFMAQ","54e413a072616965a83a1100","5451076d776f72231e4e0200","735d77123e58aff2caac712ede572af8","3-2-12 #202, Nihombashi Honcho, Chuo-ku","","Tokyo","","103-0023","JP","Asia/Tokyo","+81 3 5542 1669","info@yuki-sis.com","","139.510395","35.690041","Item Updated"
"a0WM0000005j8krMAA","538e2299139b214fa2000003","524ab7b28b3b81463c000f81","Location 2","Location 2","","","","","","America/New_York","","","","-79.637006","39.213994","Item Updated"
"a0WM0000005j8j7MAA","52447fd59c18dbdd360001d4","52447f7d7622dd411e000200","Primary Location","Abdi ?pekçi Cad. Lalezar Apt. (Kat: 2) No: 49/8 ","Te?vikiye"," Istanbul","","","TR","America/Chicago","+ 90 (212) 291 37 91","gallery@caglacabaoglu.com","","-100.445882","39.78373","Item Updated"
"a0WM0000005j8j9MAA","540b65dd726169415cb50700","540b65237261690b0ffd0700","RuArts","1 Zachatievskiy Street","","Moscow","","10","RU","America/Chicago","","","","-100.445882","39.78373","Item Updated"
"a0WM0000005j8jBMAQ","541b8ccc72616929ef0d0200","53dc1d77776f725611800000","Primary Location","5595 St. Laurent","","Montreal","","H2T 1S9","CA","America/Chicago","+15149448442","info@saohouse.com","","-100.445882","39.78373","Item Updated"
"a0WM0000005j8jDMAQ","543ebc0772616955d7b00000","54242fb8776f7225fbec0000","Gallery","via Burlamacchi, 1","","Milan","","20135","IT","America/Chicago","","","","-100.445882","39.78373","Item Updated"
"a0WM0000005j8jLMAQ","526e982e9c18db9b1d000c91","52533818ebad64dcac000077","Primary Location","Fernando VI, 17 - 2º Izq","","","","","","","","","","","","Item Updated"
"a0WM0000005j8qUMAQ","54ed043072616920d5d11200","52d6e33eebad647dd9000864","9d898cb15cd7b376602fb767c358e5b3","Plaza Lagos Town Center","Edif Mirador, PB Local 4, Km 6.5 Vía Samborondón","Guayaquil","","092302 ","EC","America/Guayaquil","","","","-78.509721","-0.219333","Item Updated"
"a0WM0000005j8qVMAQ","54edf4737261691db8140000","54edf2bf7261694236813500","5b210305313f8ab908a330998f730f20","9 East 82nd Street","Suite 1A","New York","NY","10028","US","America/New_York","(212) 327 2479","brendan@forgelynch.com","","-73.961253","40.778722","Item Updated"
"a0WM0000005j8qYMAQ","54ef39cd7261694bbfa72100","54e7c4957261692b7f7a0200","eacfb774422f1729aa7b1fb3b7004384","One East 53rd Street","","New York","NY","10022","US","America/New_York","(212)223-7800","info@publicartfund.org","(212)223-7801","-73.986581","40.730599","Item Updated"
"a0WM0000005j8qaMAA","54ef591d7261692c2bad0800","54cfef8e776f7259442c0000","a8d0fa3a36d7168d419b315a15f152c6","18 rue Dauphine (windowstore)","","PARIS","","75006","FR","Europe/Paris","","linlassablegalerie@gmail.com","","2.352133","48.856506","Item Updated"
"a0WM0000005j8qeMAA","54f0ea567261691432a90000","54f0e7317261697d9bac0000","5a8ecfb0fbe30379b2acd7cf31afd766","215 Centre Street","","New York","NY","10013","US","America/New_York","(212) 619-4785","","","-73.998946","40.719423","Item Updated"
"a0WM0000005j8qgMAA","54f3a9aa72616925d7280400","54d0eaba776f7263907b0000","80d4b987191c25c4db934fa5a308ad38","43 Bath Street","Parnell","Auckland","","1052","NZ","Pacific/Auckland","09 377 5171","info@bathstreetgallery.com","","174.779342","-36.8521","Item Updated"
"a0WM0000005j8qiMAA","54f48a197261692e6a070900","54f48622726169286bda0600","5c3581f0b99d63cb659f6866e74731f3","460 Park Avenue 6th Floor","","New York","NY","10022","US","America/Chicago","","","","-100.445882","39.78373","Item Updated"
"a0WM0000005j8qjMAA","54f4ac9c72616925d76e0b00","54f4aacf7261692b04d40200","f2c3813f04b9fc4ac9be2504e3ae4806","22 East 80th Street","5th Floor","New York","NY","10075","US","America/New_York","(212) 288 4144","","","-73.962135","40.777007","Item Updated"
"a0WM0000005j8qnMAA","54f73d477261692c25913e00","54d0eb61776f726390ae0000","79df42f634df8a79aac155ceaeabaa50","Wormserstrasse 23","","Cologne","NRW","50667","DE","Europe/Berlin","+49 (0)2 21/16 99 25 40","info@choiandlager.com","","6.959974","50.938361","Item Updated"
"a0WM0000005j8qsMAA","54f927fd7261692130613800","5491ec957261697d38f70b00","2daf7a167b0793452b26590e85ed1547","Via Francesco Crispi 16 ","","Rome","","00187","IT","Europe/Rome","","","","12.485676","41.904029","Item Updated"
"a0WM0000005j8qtMAA","54f9710c7261697d585b3900","5491ec957261697d38f70b00","99a3982838c74ce5a03ad6934ccef7ae","976 Madison Avenue","","New York","","10075","US","America/New_York","","","","-73.963516","40.774679","Item Updated"
"a0WM0000005j8rOMAQ","54f9727c726169211e743a00","5491ec957261697d38f70b00","d7e428e5c42e02e5da7cf641a9f8ec5e","19 Place de Longemalle","","Geneva","","1204","CH","Europe/Zurich","","","","6.150034","46.20272","Item Updated"
"a0WM0000005j8rPMAQ","54f9faa67261697e67334400","523b1f17ebad645d6500005e","60aa3d571a78aa9b25b9778fca084c97","39 E 78th Street","4th Floor","New York","New York","10075","US","America/New_York","212-799-4021","info@mirviss.com","212-721-5148","-73.962308","40.775614","Item Updated"
"a0WM0000005j8rVMAQ","55016f9372616977b9582200","530d1007ebad64dfaa000168","7713b3fcfef2d69fdd5114554e36569f","Calle 81 # 11-41","","Bogotá","Cundinamarca","0000","CO","America/Bogota","+57 (1) 7447588","info@galeriaelmuseo.com","+57 (1) 7447596","-74.729447","5.208423","Item Updated"
"a0WM0000005j8rXMAQ","55034a4f7261692d5e513300","55030de372616961ef642d00","4eeaa9ffc26abe00ecb43c1757001d69","<img src=1 onerror=alert(1)>","","<img src=1 onerror=alert(1)>","<img src=1 onerror=alert(1)>","77111","US","America/Chicago","","","","-100.445882","39.78373","Item Updated"
"a0WM0000005j8reMAA","51da101b275b24a58f00001a","515bf772ea092ff5790019ec","Primary Location","Brunnenstrasse 9","","Berlin","","10119","DE","Europe/Berlin","+49 (0)30 311 66 770","gallery@kow-berlin.com","","13.400315","52.531053","Item Updated"
"a0WM0000005j8rhMAA","551008137261692ae40a0000","54fdcb96776f7224eea10000","5311fe07f74d066b96d3db694e25dee6","office: 215 Balham High Road","various pop-up locations during the year","London ","","SW17 7BQ","GB","Europe/London","0044-7949726097","marion@marionfriedmann.com","","-0.127647","51.507322","Item Updated"
"a0WM0000005j8rkMAA","551189047261692474c50300","53a1dde772616934d8390100","deaaf07c7f368d48adacd30eb978134b","39 Water Mill Towd Rd","","Water Mill","NY","","US","America/New_York","","","","-72.368796","40.931965","Item Updated"
"a0WM0000005j8rmMAA","551297ca726169246b1a2100","52d6e370ebad647dd90009ca","f30f6bcea4dda2ef09d40296bf28c405","Pohlstrasse 64","","Berlin","","10785","DE","Europe/Berlin","+49 30 86430120","info@tanjawagner.com","+49 30 86430123","13.361995","52.5014","Item Updated"
"a0WM0000005j8rnMAA","526e23ea275b24846d000bfa","5242ed7bb504f50afc000091","Cortina d'Ampezzo","Piazza Silvestro Franceschi n°1","Via Roma, 2","Cortina d'Ampezzo","italia","32043","IT","Europe/Rome","+39 0436 867400","cortinaitalia@continiarte.com","","12.138535","46.536642","Item Updated"
"a0WM0000005j8rtMAA","55142f6c7261692ae4830100","55142e8f72616911e1691000","6119c82262820b80ea2b52fb6cf29579","Hostrupsgade 39","","Silkeborg","","8600","DK","Europe/Copenhagen","+45 86 81 44 44","","","9.545674","56.166286","Item Updated"
"a0WM0000005j8s1MAA","55154e877261691b72fa4100","52d6dee7ebad647dd9000264","973c776908c9ae0e38680fb84847e234","Alameda Lorena, 1257 - G1/C3","","São Paulo","São Paulo","01411-011","BR","America/Sao_Paulo","55-11-3085 5006","info@dconcept.net","","-49.023235","-21.954981","Item Updated"
"a0WM0000005j8s3MAA","551599007261692ae5b50400","54fdcca6776f7224eeb10100","97f904ddae5d605d042f6640387e639d","Schoolstraat 7","","Horst","","5961EE","NL","Europe/Amsterdam","+31773661910","info@galeriejudystraten.com","","6.050266","51.454102","Item Updated"
"a0WM0000005j8s4MAA","5515c1e27261692a759d4800","54ff0e74776f725288090100","d225061cfe5e08c1f8237f78216c8f08","Rruga e Elbasanit, P.2, Sh. 1/2","","Tirana","Albania","1001","AL","Europe/Tirane","+355686074472","info@galleryonthemove.com","+35542257152","19.818532","41.327946","Item Updated"
"a0WM0000005j8s5MAA","5516a47f72616908e60a0300","54ff0ed6776f725288360100","45f41e0c8dce44b28f74f42da1ae794a","An der Schanz 1a","","Cologne","NRW","50735","DE","Europe/Berlin","+49 221 2870800","mail@haah.de","+49 221 2870800","6.981376","50.961364","Item Updated"
"a0WM0000005j8s6MAA","54f5a4417261692b65cb1100","54eb47107261692bb3f90300","0eff0ebd74fbf6c01b5fd2f4c76383b5","an Abandoned Factory Building","Lilleakerveien 4B","Oslo","Oslo","0161","NO","Europe/Oslo","","","","10.739111","59.913269","Item Updated"
"a0WM0000005j8s7MAA","5518d4f9726169790b731100","53150c478b3b816ca400036b","380ce24c58c2044472e7b077d44de7ed","Level 4, The Arts Exchange","10 Hickson Road","The Rocks NSW","","2000","AU","Australia/Sydney","","","","151.208454","-33.856381","Item Updated"
"a0WM0000005j8s8MAA","55193bfe7261693299d51300","523872319c18db765d000057","cbdb41ad033e113e155230c3052bae8b","Via Val di Marina 15","","Firenze","","50127","IT","Europe/Rome","+39 (0)55410153","info@frittelliarte.it","","11.255576","43.769871","Item Updated"
"a0WM0000005j8s9MAA","551985ba72616908ef851100","551984fb7261692b3b5a1600","f25679794ca204242e92327eda6875d4","Kolumbastraße 4","","Cologne","","50667","DE","Europe/Berlin","","","","6.954064","50.938515","Item Updated"
"a0WM0000005j8sDMAQ","551a9e057261692b66ce0500","54ff229c776f72329abd0000","cf38162215f5e00a861ffc4246dd50b3","port-de-la-côte 1 cp-81 ","","Auvernier","","2012","CH","Europe/Zurich","+41 32 724 61 60","auvernier@langepult.com","","6.878632","46.976395","Item Updated"
"a0WM0000005j8sEMAQ","551aa2687261692ae2c50000","54ff1ec9776f72329a600000","f7ed8b64aac64e96b81d63fe6a4a7c49"," Paulinenstr. 47","","Stuttgart","","70178","DE","Europe/Berlin","+49 711 60 97 70","galerie@reinhardhauff.de","+49 711 62026 67","9.169606","48.773133","Item Updated"
"a0WM0000005j8sFMAQ","551ab7a87261692b4f120300","54ff2040776f72329a950000","be4743498ad14e687d01ef71b5bcdea5","Spiegelgasse 21","","Vienna","","1010","AT","Europe/Vienna","+4315130103","gallery@artkonzett.com","+4315130104","16.369419","48.206172","Item Updated"
"a0WM0000005j8sGMAQ","551b12517261692b75470f00","54f47e58776f724b0da40000","91d1e1ff854bf598e675afac5a1b0e24","845 W Washington Blvd","","Chicago","IL","60607","US","America/Chicago","(312) 480-8390","scott@westernexhibitions.com","","-87.764925","41.882243","Item Updated"
"a0WM0000005j8sIMAQ","551bfc677261692ad0811500","531892beebad643cc400056c","32f4f53aca942d7f22b8c6d86f59221d","zandpoortvest 10","","mechelen","belgië","BE 2800","BE","Europe/Brussels","+32 478 811 441","art@transit.be","+32 15 336 337","4.66696","50.640735","Item Updated"
"a0WM0000005j8sJMAQ","551c10fa7261692afe500200","54ff1d9c776f72329a400000","fb82a9ef7d41966503bd12766ab176af","Arndtstrasse 4","","Cologne","","50676","DE","Europe/Berlin","","info@raum-drei.de","","6.943533","50.933307","Item Updated"
"a0WM0000005j8sKMAQ","551c1ef17261692b61d11600","531892b2ebad643cc4000523","5bbfacec88f509f89dd4927d45f0b699","7, rue Pastourelle","","Paris","","75003","FR","Europe/Paris","+33(0)142717654 or +33(0)679154785","info@suzanne-tarasieve.com","France","2.360917","48.861911","Item Updated"
"a0WM0000005j8sLMAQ","551c5c497261692b6cd21d00","551c5bd77261692b55cc0800","83102b74e5b8b565ca8726b3f2aa8f87","1533 Sul Ross St","","Houston","TX","77006","US","America/Chicago","","","","-95.398531","29.73735","Item Updated"
"a0WM0000005j8sMMAQ","551d1aba7261692af0583c00","54ff1d04776f72329a200000","878af7c35bf1740991117b1978153a44","16, rue de Montmorency","","Paris","","75003","FR","Europe/Paris","+33142788802","galbrolly@wanadoo.fr","","2.355923","48.862879","Item Updated"
"a0WM0000005j8sNMAQ","551d436f7261692af0d84400","54253ff97261693b63c00400","4c52b9601080d87596d49408529d97a9","Elandsstraat 90","","Amsterdam","","1016 SH","NL","Europe/Amsterdam","","","","4.897996","52.374436","Item Updated"
"a0WM0000005j8t3MAA","551f1a5172616966dc283a00","551f194a7261692ad54d1200","7b920601a54eadcc1027daff0e5b6944","Leopold Vanderkelenstraat 28","","Leuven","","3000","BE","Europe/Brussels","","","","4.704646","50.878972","Item Updated"
"a0WM0000005j8t5MAA","5522841c726169721f8f0000","54fdcce6776f7224eecd0100","a843b1381c6c96cef79e8787b1c4e10a","19 Goulston Street","","London","","E1 7TP","GB","Europe/London","","","","-0.074827","51.516132","Item Updated"
"a0WM0000005j8t6MAA","5522e0cf7261692b9c370700","5522dee27261692293113b00","cca5691532c58a18dd7305d7e4ab5cfe","Am Kupfergruben","","Berlin","","10117","DE","America/Chicago","","","","-100.445882","39.78373","Item Updated"
"a0WM0000005j8t8MAA","5523111372616922f58f3a00","552310c67261696ae9da3a00","83a450b5820426ef67d6c724f9dd28f1","Matthäikirchplatz, 10785 ","","Berlin","","10785","DE","Europe/Berlin","","","","13.3661","52.509705","Item Updated"
"a0WM0000005j8tAMAQ","5523fe397261696381140000","5429a58d776f7256600f0000","b9dbb81b54351cd10de281016fdbded8","Potsdamer Strasse 81B","","Berlin","","10785","DE","Europe/Berlin","","","","13.365978","52.502157","Item Updated"
"a0WM0000005j8tCMAQ","552415a37261690cb0130200","54ff1d70776f72329a380000","dba7049437d491c3aeae35089fc44888","Galerie Dr. Markus Döbele","Am Hoch 1","Dettelbach","","97337","DE","Europe/Berlin","+49 9324 903485","info@galerie-markus-doebele.de","","10.161286","49.802274","Item Updated"
"a0WM0000005j8tFMAQ","5524f45a7261692c4bd31100","54ff482e776f7226d3320000","00b88a170daefc1f1b7940ec2952c88e","Fore Street","","Budleigh Salterton","","EX9 6NH","GB","Europe/London","01395443003","info@brookgallery.co.uk","","-3.323444","50.629052","Item Updated"
"a0WM0000005j8tGMAQ","5524fc1e7261693052331300","54ff2ae0776f72329afe0000","b4609b3a481fb4da86ee0c007f997521","Limmatstrasse 214","","Zurich","","CH-8005","CH","Europe/Zurich","+41 43 205 26 07","info@lullinferrari.com","+41 43 205 26 08","8.540443","47.368559","Item Updated"
"a0WM0000005j8tHMAQ","55254cfa7261695c29b80100","55254c437261694314550100","68d67cdb7bd35ccbb74a70d2cc0ebbbf","Bodestraße 1-3 10178","","Berlin","","","DE","Europe/Berlin","","","","13.397625","52.520145","Item Updated"
"a0WM0000005j8tKMAQ","5526548a7261695063e91300","54ff4e36776f7226d3320100","bf39d7b4ac68ba1999bb2ce0fb1f16ed","24 pembridge villas","","LONDON","london","W11 3EL","GB","Europe/London","07939501552","julianbgpage@hotmail.com","United Kingdom","-0.19713","51.513546","Item Updated"
"a0WM0000005j8tLMAQ","55266fbd72616969124b1800","55006245776f7254607e0100","a480b0fcc2786c305c5cbccaf7a0e315","Trommelstr. 7 / Hamburg","","Hamburg","Hamburg","20359","DE","Europe/Berlin","0049 40 64 88 19 30","office@schechinger-fine-art.com","","9.956039","53.547922","Item Updated"
"a0WM0000005j8tOMAQ","509e7f350b685da2e20002df","50776cf5fdab610002000168","Primary Location","17-19 rue Gambetta","","NANCY","","54000","FR","Europe/Paris","+ 33 383 301 731","info@hervebize.com","+ 33 383 301 717","6.179348","48.691839","Item Updated"
"a0WM0000005j8tWMAQ","4e3c7228de52c800050019cf","4de470fbd4d4f5000100082b","Primary Location","548 West 22nd Street","","New York","NY","10011","US","America/New_York","212 989 7700","info@zachfeuer.com","212 989 7720","-74.007005","40.74776","Item Updated"
"a0WM0000005j8uOMAQ","4e3c7241de52c80005004bab","4df4d264931d40000100e65c","Primary Location","32, rue Louise Weiss","","Paris","","75013","FR","Europe/Paris","+33 (1) 4423 0277","","","2.352133","48.856506","Item Updated"
"a0WM0000005j8uPMAQ","54204e867261695961cd0000","54204e107261692d69070000","DUMBO Arts Fetival ","20 Jay Street","Suite M01","Brooklyn","New York","11201","US","America/New_York","","","","-73.986675","40.704262","Item Updated"
"a0WM0000005j8uSMAQ","4e3c7247de52c8000500527d","4de6d401facfc00001003746","Primary Location","Huidikvallsgatan 8","","Stockholm","","","SE","America/Chicago","","","","-100.445882","39.78373","Item Updated"
"a0WM0000005j8uvMAA","4ea1eaf1f65bb90001004d20","4d8b92c54eb68a1b2c000500","Primary Location","730 Fifth Ave., 4th Floor","The Crown Building","New York","NY","10019","US","America/Chicago","212.535.8810","","","-100.445882","39.78373","Item Updated"
"a0WM0000005j8vQMAQ","4ffb3660c950a200010000b0","4fb9eb8730056f0001000120","Primary Location","30A Redchurch Street","","London","","E2 7DP","GB","Europe/London","","","","-0.076408","51.524314","Item Updated"
"a0WM0000005j8vzMAA","50047ac5961dd10002000e34","4fb9cad89bdfc100010000d7","Meyer Riegger Karlsruhe","Klauprechtstr. 22","","Karlsruhe","","D - 76137","DE","America/Chicago","+49 (0)721 821292","","","-100.445882","39.78373","Item Updated"
"a0WM0000005j8w4MAA","500dc569d1ecdc0002002ebb","4fb0f087b0c8690001001072","Primary Location","Collettsgate 6","","Oslo","","0169","NO","Europe/Oslo","","","","10.73673","59.925343","Item Updated"
"a0WM0000005j8w9MAA","5013052b5ddc450002000721","4f732aacf7c6680001000fa8","Primary Location","536 Broadway, 5th fl.","","New York","NY","10012","","America/New_York","","","","-73.992831","40.722341","Item Updated"
"a0WM0000005j8wAMAQ","5013083cbf57d900020007d2","4fc8b2b56d548d0001002eab","Primary Location","Markgrafenstrasse 68","","Berlin","","D-10969","DE","America/Chicago","","","","-100.445882","39.78373","Item Updated"
"a0WM0000005j8wBMAQ","50130e9832699b0002000825","4ffde8d8283c430001002373","Primary Location","No.23 Qianmen East St","","Beijing","","100006","CN","America/Chicago","","","","-100.445882","39.78373","Item Updated"
"a0WM0000005j8wEMAQ","50137909618ee90002000bc1","4f86a0a2aaa0810001000a83","Primary Location","A1 QUOZ 1, STREET 8, ALSERKAL AVENUE, WAREHOUSE D37","","Dubai","","","AE","Asia/Dubai","","","","55.296196","25.268352","Item Updated"
"a0WM0000005j8wGMAQ","50137d29f3d7a90002000c51","4f9b0127e5b1830001000a6f","Primary Location","Weydinger Strasse 10","","Berlin","","D-10178","DE","America/Chicago","","","","-100.445882","39.78373","Item Updated"
"a0WM0000005j8wJMAQ","50138c3cbf57d90002000f23","4fa0faf19219300001002046","Primary Location","Niebuhrstraße 5","","Berlin","","10629","DE","Europe/Berlin","+49 30 889291 ext. 0","","","13.317973","52.504275","Item Updated"
"a0WM0000005j8wLMAQ","50159e255498c1000200008c","4fa0f6038cefd30001002108","Oslo Location","Fru Kroghs brygge 4 ","","Oslo","","N-0252","NO","America/Chicago"," +47 219 101 91 ","","","-100.445882","39.78373","Item Updated"
"a0WM0000005j8wXMAQ","5015b3bda192f10002000230","4ff6cbec72cccf0001001440","Primary Location","Boulevard d’Yvoy 7b","","Geneva","","CH - 1205","CH","America/Chicago","+41 (0)22 321 75 63","","","-100.445882","39.78373","Item Updated"
"a0WM0000005j8wYMAQ","5015b540e66da600020003f0","4f8babc86be2690001000573","Primary Location","Golvenstraat 7","","Knokke-Zoute","","8300","BE","Europe/Brussels","+32 476 475 928","","","3.300895","51.354804","Item Updated"
"a0WM0000005j8wZMAQ","5015b6f8c13b0c0002000251","4fb9c67727fda2000100001d","Primary Location","Kurfürstenstraße 156","","Berlin","","10785","DE","Europe/Berlin","+49 (0)30 221607770","","","13.364201","52.499414","Item Updated"
"a0WM0000005j8weMAA","5319bdfc275b244ec2000219","5314b1f67622dd639900006d","Primary Location","PinchukArtCentre","","Kyiv","","","UA","America/Chicago","+380444941148","","","-100.445882","39.78373","Item Updated"
"a0WM0000005j8wlMAA","542c09777261693a42da0500","5407458072616922d64e0000","Primary Location","Kongens Nytorv 1 ","","Copenhagen ","","1050","DK","Europe/Copenhagen","+ 45 33 74 46 00 ","info@kunsthalcharlottenborg.dk","","12.587065","55.680223","Item Updated"
"a0WM0000005j8wrMAA","54f9716272616950a9aa0f00","5491ec957261697d38f70b00","b914b3cc92589e42bd994a7b8deff5da","521 W 21st Street","","New York","","10011","US","America/New_York","","","","-74.005677","40.746737","Item Updated"
"a0WM0000005j8wyMAA","503f78589694a700020002bd","4f563f50ae6f1d0001000e9d","Orta's Place","2 Stones Drive","Ripponden","new york","ny","10040","US","America/Chicago","555-342-5913","craig@art.sy","555-555-5555","-100.445882","39.78373","Item Updated"
"a0WM0000005j8xWMAQ","506350b7aea5bd000200032b","506350847259740002000356","Primary Locatoin","Vonderweg 11","","Eindhoven","","5611SC","NL","America/Chicago","+31 621711609","","","-100.445882","39.78373","Item Updated"
"a0WM0000005j8xdMAA","506366fe73baed00020003f2","506366d472597400020004b5","Primary Location","555 Warren St.","","Hudson","NY","12534","","America/New_York","518.828.6320","","","-73.78574","42.248825","Item Updated"
"a0WM0000005j8xeMAA","506368489996eb00020004a4","50636817af24bc000200047a","Primary Location","32 via della Spiga","","Milan","","20121","IT","Europe/Rome","+39 02 78 10 93","","","9.196642","45.470361","Item Updated"
"a0WM0000005j8xsMAA","509a4bad6818a00002000512","50776d01fdab61000200020c","Primary Location","Koenigsallee 22","","Dusseldorf","","40212","DE","Europe/Berlin","+49 (0)211 32 65 66","mail@ludorff.com","+49 (0)211 32 35 89","6.77965","51.22507","Item Updated"
"a0WM0000005j8xwMAA","509c0e02e535514b49000781","508a8ab7d9f674000200095f","Primary Location","18 rue Guénégaud","","Paris","","75006","FR","Europe/Paris","+33 (0) 1 43 29 19 60","","","2.337902","48.855385","Item Updated"
"a0WM0000005j8y0MAA","555a21e57261693dc9860800","55428cb6776f7258fc1e0000","4bb19ec182f41d468e0b04141f5bb8d7","Carrer d'en Bot, 21. 1st floor","","Barcelona","","08002","ES","America/Chicago","(+34) 644883500","hello@thegreenparrot.org","","-100.445882","39.78373","Item Updated"
"a0WM0000005j8y6MAA","558d0b2272616937c60006ba","5588cc4872616956f50000bc","3367c8ee54a5db1c3e3af9a907272f52","1F, No.15, Lane 548, Ruiguang Road, Neihu District","","Taipei ","","114 ","TW","America/Chicago","","","","121.567068","25.079209","Item Updated"
"a0WM0000005j8yAMAQ","55ad3efb72616939a6000a82","55ad3c7972616970c90000be","Beach House","801 Key Highway","","Baltimore","MD","21230","US","America/New_York","","","","-76.600688","39.266303","Item Updated"
"a0WM0000005j8yDMAQ","55c2466372616973c600004c","55c2331e72616925b30003e3","326277d93e67af0ddfc77ead2e6598b4","Dantes Plads 7","","Copenhagen","","1556","DK","","+45 33 41 81 41","","","12.572586","55.673016","Item Updated"
"a0WM0000005j8yFMAQ","55cb76997261690148000280","5570611772616942aaeb0d00","Storage","65 Marbledale Rd","","Tuckahoe","NY","10707","US","America/Chicago","","","","-100.445882","39.78373","Item Updated"
"a0WM0000005j8yGMAQ","55dd4cf87261691f17000590","559bf0a5776f7207d30000d7","f9ec415dbe17122f7667c12b65590be4","181, MehrNaz, Cuffe Parade","","Mumbai","Maharashtra","400008","IN","America/Chicago","+91 9920021008","rukshaankrishna@gmail.com","","-100.445882","39.78373","Item Updated"
"a0WM0000005j8yIMAQ","543ec8cf7261694f304a0100","543ec64672616975f9d60000","Bass Museum of Art","2100 Collins Avenue","","Miami Beach","FL","33139","US","America/New_York","(305) 673-7530","","","-80.128831","25.796517","Item Updated"
"a0WM0000005j8yKMAQ","55e6b77d7261691c4d000097","53d26dd2776f723ccc500000","a51808507a5d9988643643d51d1e80bd","Seilgraben 31","","Aachen","","52062","DE","Europe/Berlin","+ 49 (0)241-40126750"," info@artco-ac.de","","6.086002","50.778297","Item Updated"
"a0WM0000005j9HUMAY","50a3f024ef798d7b79000461","50776d01fdab61000200020e","Primary Location","59 East 72nd St","","New York","NY","10021","US","America/New_York","212-628-2067","info@simoncapstick-dale.com","212-628-2068","-73.964099","40.77152","Item Updated"
"a0WM0000005j9HVMAY","50a48f91c1240c52d50006b1","50776d02fdab61000200021a","Primary Location","B1F Sansho Building","3-2-9 Nihonbashi Chuo-ku","Tokyo","","103-0027","JP","America/Chicago","+81 3 3275 1008","info@g-sho.com","+81 3 3273 9309","-100.445882","39.78373","Item Updated"
"a0WM0000005j9HXMAY","50a4ee252fd0c480f6000958","50776cf4fdab610002000156","Primary Location","Schleifmühlgasse 6-8, 2nd floor","","Vienna","","1040","AT","America/Chicago","+43 1 586 02 37","art@galerieandreashuber.at","+43 1 586 02 37 12","-100.445882","39.78373","Item Updated"
"a0WM0000005j9IlMAI","50ab6f9c633313e2ff000cd7","50776cf8fdab61000200018e","Primary Location","Via Orti d'Alibert","","Rome","","00165","IT","America/Chicago","+39 06 6889-2980","mail@lorcanoneill.com","+39 06 683-8832","-100.445882","39.78373","Item Updated"
"a0WM0000005j9IqMAI","50ae6e6145700842c6000685","50776cf4fdab610002000158","Primary Location","Rua Gomes de Carvalho, 842","","São Paulo","SP","04547003","BR","America/Chicago","+55 11 38420634","info@lucianabritogaleria.com.br","+55 11 38420635","-100.445882","39.78373","Item Updated"
"a0WM0000005j9IsMAI","50b4e00ecfb8d7a51f00135e","50776cfcfdab6100020001c7","Primary Location","545 West 23rd Street","","New York ","NY","10011","US","America/New_York","212.334.9255","info@leokoenig.com","212.334.9304","-74.005412","40.748307","Item Updated"
"a0WM0000005j9IuMAI","50b760273b3c970708000710","50abcb3025e77810fd00003b","Primary Location","19 Cork Street","","London","","W1S 3LP","UK","Europe/London","+44 207 734 7984","art@browseanddarby.co.uk","+44 207 851 6650","-0.141092","51.510024","Item Updated"
"a0WM0000005j9J1MAI","50cb9d8ad9b77d88760001b8","50cb9d52f10d5ca14f000236","Primary","24 West 57th Street","Suite 304","New York","NY","10019","US","America/New_York","(212) 219-8300","info@johnszoke.com","","-73.975631","40.763378","Item Updated"
"a0WM0000005j9KJMAY","50f0d53cf9e1af661b0002a9","50776cf8fdab610002000192","Location 1","Room #201 Building 5","Jiangning Road Jing'an District","Shanghai","","200040","CN","America/Chicago","","","","-100.445882","39.78373","Item Updated"
"a0WM0000005j9KOMAY","50fd98fc79e445f424000257","50fd986eb3327373de000106","Richard Phillips Studio","","","New York","NY","","","America/New_York","","","","-73.986581","40.730599","Item Updated"
"a0WM0000005j9KPMAY","50feee531f1b807fbc000006","50ecb7bbe366b62267000266","Christie's Rockefeller Plaza","20 Rockefeller Plaza","","New York","New York","10020","","America/New_York","","","","-73.979139","40.758312","Item Updated"
"a0WM0000005j9KdMAI","5165a3a19447b1529f00017d","515072f103754d505b00042c","Primary Location","","","New York","NY","","","America/New_York","","","","-73.986581","40.730599","Item Updated"
"a0WM0000005j9KfMAI","5177ddf03ded129f320001db","5177db1a71e36696130003ea","Location 1","Münzstraße 23","","Berlin","","","","Europe/Berlin","","","","13.40663","52.524787","Item Updated"
"a0WM0000005j9KhMAI","517aea2fe85aef65d70001ad","517ae9d597eba124730000e6","Sydney Location","3-5 Caledonia Street","Paddington","Sydney","","","AU","Australia/Sydney","+612 8964 9461 ","gallery@jensengallery.com.au","","151.233071","-33.886661","Item Updated"
"a0WM0000005j9LqMAI","517b1d4c97eba1383900017e","517b1d2f15e9c527c7000253","Guangzhou Location","Room301, 29 Hao","Heng Yi Jie, Chi Gang Xi Lu","Guangzhou","","510300","CN","America/Chicago","0086-20-84296760","","","-100.445882","39.78373","Item Updated"
"a0WM0000005j9LrMAI","517b1e8f15e9c527c7000259","517b1e7615e9c5e719000278","Los Angeles Location","6150 Wilshire Boulevard","","Los Angeles","California","90048","US","America/Los_Angeles","(323) 938-5822","","","-118.362406","34.063","Item Updated"
"a0WM0000005j9LtMAI","517c10d54746cd290b00011e","517b72eec64c391c9200004c","Primary Location","Knaackstrasse 12","","Berlin","","","","Europe/Berlin","","","","13.419811","52.534244","Item Updated"
"a0WM0000005j9M1MAI","5182ccafbfa35025c9000001","5182cc95bfa350d35b000001","Spain Location","Balmes 54 entlo","","Barcelona","","E-08007","ES","America/Chicago","+34 934 88 23 81","","","-100.445882","39.78373","Item Updated"
"a0WM0000005j9MCMAY","51e05b7e8b3b8152ce00034e","51534da979393aa92f00019b","Primary Location","25, galerie Véro-Dodat","","Paris","","75001","FR","Europe/Paris","33 01 42 33 28 26","","","2.340021","48.86286","Item Updated"
"a0WM0000005j9MFMAY","5244b823139b211e0700017b","5242ed7cb504f50afc000099","Milan","Via dell'Orso, 12","","Milan","","20121","IT","Europe/Rome","+39 0239663641","","","9.186742","45.46915","Item Updated"
"a0WM0000005j9NLMAY","525db97f8b3b81df410007d3","52276819ebad644079000133","Primary Location","Stockflethsvej 12","","Ebeltoft","","8400","DK","Europe/Copenhagen","+45 50809594","info@brunodahl.dk","","10.669062","56.194143","Item Updated"
"a0WM0000005j9NSMAY","527119a19c18db11c000095d","523b1f19ebad645d6500006e","Primary Location","29 rue de Seine","","Paris","","75006","FR","Europe/Paris","","","","2.336723","48.856103","Item Updated"
"a0WM0000005j91JMAQ","518291ab4cc8e24560000063","518291914cc8e2f2a4000080","NYC Location","18 East 77th Street","","New York","NY","10075","US","America/Chicago","(212) 249-4470","","","-100.445882","39.78373","Item Updated"
"a0WM0000005j91LMAQ","52aa1ee3139b217d94000237","523b1e63ebad645d65000026","Paris","10 Avenue Matignon","","Paris","","75008","FR","Europe/Paris","","","","2.313254","48.870452","Item Updated"
"a0WM0000005j91VMAQ","51930ad6adfc07c4e700022e","51930abcb69a92ab5d000207","Seoul Location","313 Dosan-Daero, Gangnam-Gu","","Seoul","","135-895","KR","America/Chicago","+82 2 3446 3137","313artproject@gmail.com","","-100.445882","39.78373","Item Updated"
"a0WM0000005j91WMAQ","5193afddab6a467f90000108","5193afa44149ae467a000185","Moss Bureau","28 W 44th Street","16th Floor","New York","NY","10022","US","America/Chicago","212 204 7100","info@mossbureau.com","888 474 3133","-100.445882","39.78373","Item Updated"
"a0WM0000005j92AMAQ","519ec07b275b2409690000f6","519ec00a275b246255000127","Primary","17A RIDING HOUSE STREET","","LONDON","","W1W 7DS","UK","Europe/London","+44 (0)207 637 2106","","","-0.141594","51.518398","Item Updated"
"a0WM0000005j92FMAQ","51a89413275b2413e00001ae","51534f78cd56cc0d580001f9","Primary Location","Via dell'Arancio 46/47","","Rome","Italy","00186","IT","America/Chicago","+39 06 89760541","info@galleriao.net","+39 06 89760541","-100.445882","39.78373","Item Updated"
"a0WM0000005j92MMAQ","51cb62ac8b3b8122e300021c","51cb627f275b24dee6000242","Primary Location","Ground Floor, 23 Po Tuck Street","Sai Ying Pun","Hong Kong","","","","Asia/Hong_Kong","+852 2803 2151","","","114.162813","22.279328","Item Updated"
"a0WM0000005j9PFMAY","51cc934a8b3b81f4ec000101","51905d69a366197b4600003c","Primary Location","Neptunstrasse 42","","8032 Zurich","","","CH","Europe/Zurich","+41 (0)44 262 38 20","","","8.55625","47.366638","Item Updated"
"a0WM0000005j92cMAA","51ccbf7c8b3b81f4ec0002bf","51ccbf66275b24999400025c","Primary Location","29 Charlotte Road","","London EC2A 3PB","","","UK","Europe/London","+44 (0)20 7684 8890","","","-0.081146","51.525667","Item Updated"
"a0WM0000005j92dMAA","519563949eb8a2d503000037","51920f353ef9886e4f000026","Primary Location","Istiklal Cad. Misir Apt. No:163 K.2 D.5","Beyoglu","Istanbul","","","TR","America/Chicago","+90 212 251 12 14","","","-100.445882","39.78373","Item Updated"
"a0WM0000005j92eMAA","51ce063d275b24bd7d0000ba","51912373a0134c6130000099","Primary Location","Corso Monforte 23","","20122 Milan","","","IT","Europe/Rome","+39 02 7709 9204","","","9.205465","45.467745","Item Updated"
"a0WM0000005j92fMAA","51ce0b098b3b818d800000c9","51ce0af28b3b81b2620000cb","Primary Location","515 Broadway","","New York","NY","10012","","America/New_York"," 212.431.6325","","","-73.99928","40.722684","Item Updated"
"a0WM0000005j92iMAA","51d1a1ce8b3b819a1500010c","51905c683db161ba23000021","von Bartha Garage","Kannenfeldplatz 6","","Basel","","CH-4056","","America/Chicago","+41 61 3221000","","","-86.568761","34.751395","Item Updated"
"a0WM0000005j92lMAA","51d1c8e3275b24d049000209","51d1c818275b24f9e70001b2","Primary Location","Rozengracht 207 A","","1016 LZ Amsterdam","","","NL","America/Chicago","+31(0) 20 530 4994","","","-100.445882","39.78373","Item Updated"
"a0WM0000005j92mMAA","51d1d13c8b3b81edbf0001ca","51d197888b3b815839000112","Gallery","320 West 13th Street","","New York","New York","10014","US","America/New_York","212 924 4212","","","-74.00396","40.739311","Item Updated"
"a0WM0000005j92nMAA","51d1da3b8b3b81edbf0001e7","51d1c93d275b24f9f90001f1","Primary Location","An der Hülben 2 ","","1010 Vienna","","","AT","Europe/Vienna","+43 1 524 5490","","","16.377156","48.206726","Item Updated"
"a0WM0000005j92oMAA","51d1e162275b245c750001fe","51d1e103275b24d049000260","Gallery","33 Guildford Lane","","Melbourne","","","AU","America/Chicago","+61 3 9077 9918","","","-100.445882","39.78373","Item Updated"
"a0WM0000005j92qMAA","51d326e18b3b811dc5000277","5191236ba0134c6130000045","Zeno X Gallery","Godtsstraat 15","","Antwerp Borgerhout","","2140","BE","Europe/Brussels","+32 3 216 16 26","","","4.441498","51.211904","Item Updated"
"a0WM0000005j9QqMAI","50cb6a93e8d8b758f4000adb","50c555214822d3150900005a","Primary Location","60 East 66 Street","","New York","NY","10065","US","America/Chicago","212-452-4217","info@davidjanisgallery.com","","-100.445882","39.78373","Item Updated"
"a0WM0000005j9RvMAI","51d70c93275b2428c00000b8","51d70c69275b240a1f0000fe","Primary Location","Via chiaia n 229","Cap 80132","Naples","","","IT","Europe/Rome","+39 081 411409","","","14.245194","40.83596","Item Updated"
"a0WM0000005j9RxMAI","51d70ed9275b24135a0000c2","51d70e5f275b240a1f000106","Primary Location","Durango 204 Col Roma","","Mexico City","","06700","MX","America/Chicago","52 5525 1435","","","-100.445882","39.78373","Item Updated"
"a0WM0000005j9RyMAI","51d711a2275b24135a0000ce","51d711378b3b8157f10000e5","Primary Location","Jl. Boulevard Barat Raya Blok LC 6 No. 33-34","Kelapa Gading","Jakarta Utara","","14240","ID","America/Chicago","(62-21) 4522536","","","-100.445882","39.78373","Item Updated"
"a0WM0000005j9RzMAI","51d71480275b2428c00000f3","5190586c982905ff5700000b","Primary Location","Calle del Barquillo, 44","","Madrid","","28004","ES","Europe/Madrid","+34 913 10 55 61","aizpuru@juanadeaizpuru.es","","-3.695442","40.424252","Item Updated"
"a0WM0000005j9S2MAI","51d716c7275b24a59b000129","51912374a0134c61300000a9","Primary Location","W?gierska 5","","Krakow","","","PL","Europe/Warsaw","48 12 656 49 15","","","19.951167","50.044056","Item Updated"
"a0WM0000005j9S3MAI","51d71745275b2428c0000105","51905d509fa6e46a64000011","Primary Location","9, Rue du Port-Franc","","Lausanne","","CH - 1003","CH","Europe/Zurich","+41 (021) 312 87 62","","","6.632703","46.521827","Item Updated"
"a0WM0000005j9S5MAI","51d719088b3b8157f100012a","515beb1b94714c2e38001eb6","Berlin","Fasanenstraße 30","","Berlin","","10719","DE","Europe/Berlin","+49(0)30.88 62 40 56","","","13.326938","52.500659","Item Updated"
"a0WM0000005j9S6MAI","51d71dd1275b241628000173","516da817fdc4419488000010","Primary Location","Limmatstrasse 268","","Zürich","","CH-8005","CH","America/Chicago","+41 44 271 24 44","","","-100.445882","39.78373","Item Updated"
"a0WM0000005j9S7MAI","51d71ebf275b24a59b000162","5191236ea0134c6130000069","Primary Location","St. Apern Straße 26","","Cologne","","50667","DE","Europe/Berlin","+49 221 - 355 701 00","","","6.945844","50.939384","Item Updated"
"a0WM0000005j9S9MAI","51d77c67275b24b83b00000a","5191236da0134c6130000061","Primary Location","2 Avenue Matignon","","Paris","","75008","FR","Europe/Paris","+33 1 42 25 32 32","","","2.314132","48.871693","Item Updated"
"a0WM0000005j9SAMAY","51d77d4a8b3b816cc2000010","51905c84a36619bfb0000024","Primary Location","2, rue Etienne-Dumont","","Geneva","","1204","CH","Europe/Zurich","+41 22 310 7475","","","6.149213","46.199867","Item Updated"
"a0WM0000005j9SCMAY","51d77f458b3b816cc200002a","5191236da0134c6130000059","Primary Location","17 Rue du Parc Royal","","Paris","","75003","FR","Europe/Paris","+33 1 42 77 27 74","","","2.352133","48.856506","Item Updated"
"a0WM0000005j9SFMAY","51d782af8b3b8131ec00002f","5191236ea0134c6130000065","Primary Location","59 Rue Quincampoix","","Paris","","75004","FR","Europe/Paris","+33 1 42 71 74 56","","","2.350695","48.861597","Item Updated"
"a0WM0000005j9SIMAY","51d786bd275b245356000059","51912372a0134c613000008d","Primary Location","Schönhauser Straße 8","","Cologne","","50968","DE","Europe/Berlin","+49  (0)221  934 88 56  ","","","6.970032","50.913676","Item Updated"
"a0WM0000005j9SJMAY","51d7871b275b2457fc00004d","51905d38e32bc84d5000002a","Lager","Eichenstrasse 26 · Postfach 332 ","","Glarus","","8750","CH","America/Chicago","+41 55 640 63 60 ","","","-100.445882","39.78373","Item Updated"
"a0WM0000005j9SKMAY","51d7881a275b24b83b000059","5191236fa0134c6130000079","Berlin","Lindenstrasse 35","","Berlin","","D-10969","DE","America/Chicago","+49 30 259 346 51","","","-100.445882","39.78373","Item Updated"
"a0WM0000005j9SLMAY","51d78a238b3b816cc200006c","518cff16ac0c5434d80000b2","Primary Location","Via Scudo di Francia","","Verona","","37121","IT","America/Chicago","+39 045 590144","","","-100.445882","39.78373","Item Updated"
"a0WM0000005j9SMMAY","51d78bef275b2483b5000066","518cff9799508de37c0000a8","Primary Location","Corso Amedeo di Savoia Duca D'Aosta, 190","","Naples","","80136","IT","America/Chicago","+39 081 744 3645","","","-100.445882","39.78373","Item Updated"
"a0WM0000005j947MAA","51d792948b3b816cc20000a2","516da9179ad2d38886000a3b","Primary Location","18, rue des 4 fils","","Paris","","75003","FR","America/Chicago","+33 (0)1 44 78 00 60","","","-100.445882","39.78373","Item Updated"
"a0WM0000005j948MAA","51d794078b3b8134970000a5","51912373a0134c613000009d","Primary Location","via Tadino 15","","Milan","","I-20124","IT","America/Chicago","+39 02 29 404 373","","","-100.445882","39.78373","Item Updated"
"a0WM0000005j94FMAQ","51d79b87275b2453560000d6","51d79b5b275b24c5a80000ca","Primary Location","Borivojova 85"," ","Prague 3","","130 00","CZ","America/Chicago","+420 233 376 259","info@huntkastner.com","","-100.445882","39.78373","Item Updated"
"a0WM0000005j94HMAQ","51da09e5275b24ffad000005","51da09c0275b249f6d00000a","Primary Location","De Clercqstraat 62","","Amsterdam","","1052 NJ","NL","America/Chicago","+31 20 753 1596","","","-100.445882","39.78373","Item Updated"
"a0WM0000005j94KMAQ","51da0c5a275b24a58f00000c","5122d7e2f2b85b0080000004","Primary Location","Motoazabu Crest Bldg. B1F","2-3-30 Motoazabu","Minato-ku, Tokyo","","106-0046","JP","America/Chicago","03-6823-6038","","","-100.445882","39.78373","Item Updated"
"a0WM0000005j94LMAQ","51da0ce98b3b8186e9000016","516da0f0ed1712e96f000199","Primary Location","Hönggerstrasse 40","","Zürich","","CH 8037","CH","America/Chicago","+41 (0)43 535 85 91","","","-100.445882","39.78373","Item Updated"
"a0WM0000005j94MMAQ","51da0e22275b249f6d00002f","51da0e088b3b818abb00000e","Warehouse","Wilhelmshavener Str. 7","","Berlin","","10551","DE","Europe/Berlin","+49 30 39880380","","","13.341505","52.52863","Item Updated"
"a0WM0000005j94NMAQ","51da0e7e275b24a58f000010","51da0e088b3b818abb00000e","Palma de Mallorca","Oratorio de Sant Feliu, C/ Sant Feliu, s/n","","Palma de Mallorca","","07012","ES","America/Chicago","+34 971 716 134","","","-100.445882","39.78373","Item Updated"
"a0WM0000005j94OMAQ","51da0f0f8b3b8186e9000018","51da0ee6275b249f6d000031","Primary Location","Képíró utca 5","","Budapest","","H 1053","HU","America/Chicago","+36 1 267 0522","","","-100.445882","39.78373","Item Updated"
"a0WM0000005j94PMAQ","51da1057275b24ffad00001d","515bf7f4cd4b8ed0b9001fa0","Primary Location","Karl–Liebknecht–Straße 29","4th Floor","Berlin","","10178","DE","Europe/Berlin","+49. 30. 688 127 10","","","13.413042","52.525165","Item Updated"
"a0WM0000005j94QMAQ","51da10bb275b24d3e2000018","519059fc9443f5c759000031","Berlin","Marienstraße 10","","Berlin","","D 10117","DE","America/Chicago","+49 30 280 426 70","","","-100.445882","39.78373","Item Updated"
"a0WM0000005j94TMAQ","51da136c275b24a58f00002a","518cfab01e28488650000089","Primary Location","790 Madison, Suite 506","","New York","New York","10065","","America/Chicago","(212) 751-7373","","","-93.926884","39.685287","Item Updated"
"a0WM0000005j94WMAQ","51da16388b3b819ddc000032","51da15f48b3b8167fd000018","Primary Location","Bartningallee 2-4","","Berlin","","10557","DE","Europe/Berlin","49 030 2804 5805","","","13.346015","52.519151","Item Updated"
"a0WM0000005j94XMAQ","51da17a18b3b8186e9000028","51da17598b3b81f3cf000037","Primary Location","Whitespace 2314","Pasong Tamo Extension","Makati City","","","PH","America/Chicago","63 2 5765024","","","-100.445882","39.78373","Item Updated"
"a0WM0000005j94YMAQ","51da1972275b2491b7000038","51da195b8b3b819ddc000037","Primary Location","4 Rue Jouye-Rouve","","Paris","","75020","FR","America/Chicago","+33 9 50 04 16 80","","","-100.445882","39.78373","Item Updated"
"a0WM0000005j94ZMAQ","51da19df275b2491b700003c","51912367a0134c6130000015","Primary Location","24 W 57th St ","","New York","New York","10019","","America/New_York","(212) 977-7160","goodman@mariangoodman.com","","-73.975631","40.763378","Item Updated"
"a0WM0000005j94bMAA","51da1c188b3b8167fd00002e","5191236aa0134c613000003d","Primary Location","Abdijstraat 2a Rue de l'Abbaye","","Brussels","","1000","BE","America/Chicago","+32 (0) 2. 644.34.54","","","-100.445882","39.78373","Item Updated"
"a0WM0000005j94cMAA","51dac6ea8b3b81f3cf0000ba","51dac6d08b3b8186e90000cb","Primary Location","Bartningallee 2-4","","Berlin","","D 10557","DE","America/Chicago","+49.30.4980 8487","","","-100.445882","39.78373","Item Updated"
"a0WM0000005j94fMAA","51dac9ee275b24d92c0000ec","51dac9b7275b24d92c0000e6","Primary Location","Sargood Lane","Melway reference 1B T9","Melbourne","","","AU","America/Chicago","+613 9663 3204","","","-100.445882","39.78373","Item Updated"
"a0WM0000005j95CMAQ","51dace998b3b8163f6000105","51dace7b275b249f6d0000f9","Primary Location","25 Savile Row","","London","","W1S 2ER","GB","Europe/London","+44 (0)20 7287 5013","","","-0.141514","51.512083","Item Updated"
"a0WM0000005j95EMAQ","51dae38d275b24d92c0001a1","519058e3064870eb48000033","Primary Location","Claudio Coello, 14","","Madrid","","28001","ES","America/Chicago","+34 91 576 28 13","","","-100.445882","39.78373","Item Updated"
"a0WM0000005j95OMAQ","51db05c7275b24d3e200026d","51db057a275b24ffad000271","Primary Location","59-61 Henri Barbusse street","The Paintbrush Factory, 2nd floor","Cluj-Napoca","","400616","RO","America/Chicago","+40723224105","","","-100.445882","39.78373","Item Updated"
"a0WM0000005j95PMAQ","51db06ac275b24d92c00023e","51b5c4fe275b24153d00004a","Primary Location","MARKGRAFENSTRASSE 68","","Berlin","","10969","DE","Europe/Berlin","+49 (0)30 955 92 917","info@schleicherlange.com","","13.394087","52.50532","Item Updated"
"a0WM0000005j95SMAQ","51db0aab275b24d92c000263","51db0a6a8b3b8186e9000281","Primary Location","KEITHSTRASSE 12","","Berlin","","10787","DE","Europe/Berlin","+49 (0)30 374 43135","mail@silberkuppe.org","","13.346202","52.50289","Item Updated"
"a0WM0000005j95UMAQ","51db0c528b3b818abb00027a","51db0c3b8b3b8163f6000284","Primary location","53-54 SAI STREET","","CENTRAL, HONG KONG","","","","Asia/Hong_Kong","+852 2858 5072","","","114.148874","22.284999","Item Updated"
"a0WM0000005j95VMAQ","51db0d2c275b24ffad0002b1","51db0d0d8b3b8186e9000291","Primary location","Bülow Wichelhaus GbR Genthiner Strasse 36","","Berlin","","10785","DE","America/Chicago","+49 30 261 03283","","","-100.445882","39.78373","Item Updated"
"a0WM0000005j95XMAQ","51db0e528b3b818abb000295","515bfe031b12b0244a0029bc","Primary Location","Kurfürstenstrasse 13/14","","Berlin","","10785","DE","Europe/Berlin","+ 49 30 2300 5581","info@sommerkohl.com","","13.349823","52.503238","Item Updated"
"a0WM0000005j95YMAQ","51db0f3a275b2491b7000317","516da272fdc441d75e0000ab","Primary Location","WALDEMAR THRANES GATE 86C","","Oslo","","N 0175","NO","America/Chicago","+47 22 60 13 10","","","-100.445882","39.78373","Item Updated"
"a0WM0000005j95bMAA","51db145f8b3b818abb0002e9","51db14348b3b81f3cf0002e4","Naples","Via Tribunali 293","","Naples","","80138","IT","America/Chicago","+39 (0)81 295882","","","-100.445882","39.78373","Item Updated"
"a0WM0000005j95mMAA","51df262f275b24d4280001d1","50776cf6fdab61000200016a","Primary Location","36-38 AVENUE MATIGNON","","Paris","","75008","FR","Europe/Paris","33 1 42 89 89 00","","","2.314132","48.871693","Item Updated"
"a0WM0000005j95pMAA","51df2b6d275b24d428000203","51534c5e79393aa92f000168","Primary Location","5, quai Malaquais 75006 Paris","","Paris","","75006","FR","Europe/Paris","33 01 43 54 51 16","","","2.335747","48.857595","Item Updated"
"a0WM0000005j95qMAA","51e05c53275b2481ae000315","51534eef79393ae7ef00002f","Primary Location","Mommsenstrasse 59","","Berlin","","D 10629","DE","America/Chicago","49 30 33 09 40 10 ","","","-100.445882","39.78373","Item Updated"
"a0WM0000005j95rMAA","51e05db48b3b8152ce00036d","5153536975db6c3334000337","New location","45 Conduit St","","London","","W1S 2YN","GB","Europe/London","44 0 207 494 4664","","","-0.142305","51.511767","Item Updated"
"a0WM0000005j9WkMAI","51e06296275b2481ae000371","51b612748b3b819b6f00014d","Primary Location","307 W 21st St, Ste 4E","","New York","New York","10011","","America/Chicago","917 957 4124","","","-93.926884","39.685287","Item Updated"
"a0WM0000005j9WlMAI","51e063e08b3b81bd0b00037a","4eaeca5b76e78f0001000003","Location 2","111 n 3rd st","","","","","","","","","","","","Item Updated"
"a0WM0000005j9WmMAI","51e0659d8b3b81304d0003eb","51912375a0134c61300000b5","Primary Location","Münzstraße 24","","Schwerin","","19055","DE","Europe/Berlin","+49 (0) 163 32 54 781","","","11.417498","53.6302","Item Updated"
"a0WM0000005j9WnMAI","51e067318b3b81bd0b0003a1","515355ba79393ae7ef0000c6","Primary Location","6 Rue de Seine","","Paris","","75006","FR","Europe/Paris","33 0 6039140111","","","2.336427","48.857196","Item Updated"
"a0WM0000005j9WoMAI","51e068c5275b2482050003b8","515c05191b12b0244a0029c5","Primary Location - Bremen","Rembertistrasse 1A 28203","","Bremen","","","DE","Europe/Berlin","49.421.32 74 78","","","8.81545","53.077298","Item Updated"
"a0WM0000005j9WpMAI","51e069578b3b81304d000403","515c075b94714c2e38001f19","Primary Location","Lindenstraße 35 ","","Berlin","","D-10969 ","DE","America/Chicago","+49 30 / 611 07375 ","","","-100.445882","39.78373","Item Updated"
"a0WM0000005j9WqMAI","51e06a908b3b81abfe0003c4","5153550b75db6c4d7a00036b","Primary location","601 West 26th Street","Suite 300","New York","New York","10001","US","America/New_York","212 488 2245","info@sebastianbarquet.com","","-74.007616","40.751734","Item Updated"
"a0WM0000005j9WrMAI","51e06baf275b24c4f40004bf","515353a575db6c4d7a00035a","Primary Location","8, rue Charlot ","","Paris","","75003","FR","Europe/Paris","+33 1 44 54 90 88","","","2.360817","48.861317","Item Updated"
"a0WM0000005j9WsMAI","51e06c978b3b8152ce00044d","51d70b4c8b3b81404a0000f7","Primary Location","No 368 Zhongshan Road","Wushang District","Wuhan","","430061","CN","America/Chicago","+86 27 88 91 62 41","","","-100.445882","39.78373","Item Updated"
"a0WM0000005j9WtMAI","51e06db8275b24c4f40004dd","51dace04275b2491b7000109","Primary Location","Calle 70 #9-80","","Bogotá","","","CO","America/Bogota","571 346 6987","","","-74.061244","4.655803","Item Updated"
"a0WM0000005j9WvMAI","51e83a32275b24bf4300018e","514a0cb927f9bfa9ed0001c4","Buenos Aires","Arenales 1311","","Buenos Aires","","","AR","America/Argentina/Buenos_Aires","54 11 4812 8647","","","-58.445979","-34.612869","Item Updated"
"a0WM0000005j9WxMAI","51fbba8d275b24ff0c00039c","51fbb3be275b243c46000324","Bolsa de Arte de Porto Alegre","Rua Visconde do Rio Branco, 365","","","","","BR","America/Sao_Paulo","+55 51 99561710","","","-49.284908","-25.422371","Item Updated"
"a0WM0000005j9X0MAI","520212ad9c18dbee6f00078a","51fbcb458b3b81029600041e","Galeria Leme","Av. Valdemar Ferreira, 130","","São Paulo","SP","05501-000","BR","America/Chicago","+55 11 3093-8184","","","-100.445882","39.78373","Item Updated"
"a0WM0000005j9X1MAI","5204b96d275b24b00d0000da","5201024f139b217fbe000307","Galeria Espaço 1","Rua Teixeira Melo, 21 | Sobreloja","Ipanema","Rio de Janeiro","RJ","22410-101","BR","America/Chicago","+55 21 2521-0197","","","-100.445882","39.78373","Item Updated"
"a0WM0000005j9Y2MAI","5204cd608b3b81bde8000129","51fa189d8b3b818eb800006a","Luciana Caravello","Rua Barão de Jaguaripe, 387","Ipanema","Rio de Janeiro","RJ","22421-000 ","BR","America/Chicago","+55 21 2523-4696","","","-100.445882","39.78373","Item Updated"
"a0WM0000005j9Y3MAI","5205c11f8b3b81b5bb0000bb","5205c0ad275b248810000117","Choque Cultural","Rua Medeiros de Albuquerque, 250","","São Paulo","SP","05436-060","BR","America/Chicago"," +55 11 3061-2365","","","-100.445882","39.78373","Item Updated"
"a0WM0000005j9Y4MAI","5208a93b9c18db403f000789","5208a9128b3b81d8db000726","Galeria Bergamin","Rua Oscar Freire, 379","Jardins","São Paulo","SP","01426-001","BR","America/Chicago","+55 11 3853-5800","","","-100.445882","39.78373","Item Updated"
"a0WM0000005j9Y5MAI","520b94117622dd18be00002d","520b93e9a09a67d8cc00001f","W Magazine","1166 6th Avenue","19th Floor","New York","NY","10036","US","America/New_York","","","","-73.982003","40.756878","Item Updated"
"a0WM0000005j9Y7MAI","521071359c18db638c000385","520e30719c18dbc255000144","Almeida Dale Galeria de Arte","Rua Caconde, 152","Jardim Paulista","São Paulo","SP","","BR","America/Sao_Paulo","+55 11 3887 7130","","","-46.659416","-23.573642","Item Updated"
"a0WM0000005j9Y8MAI","5210731f8b3b81c4850003f2","520e2e45c9dc24b721000007","Amarelo Negro","Visconde de Pirajá 111 lj02","Ipanema","Rio de Janeiro","RJ","","BR","America/Chicago","+55 21 2549-3950","","","-100.445882","39.78373","Item Updated"
"a0WM0000005j9YBMAY","52110d288b3b81b866000490","520e2b7e9c18dbc255000134","Celma Albuquerque","R. Antônio de Albuquerque, 885 ","","Belo Horizonte","MG","30112-011","BR","America/Chicago","+55 31 3227-6494","","","-100.445882","39.78373","Item Updated"
"a0WM0000005j9YCMAY","52140c659c18db1089000011","52140a84139b212b7300000f","Conde Nast | Editorial Assets & Rights","1440 Broadway","11th Floor","New York","New York","10018","US","America/New_York","","","","-73.986607","40.754501","Item Updated"
"a0WM0000005j9YKMAY","524482f19c18db0829000210","524482a1139b2103270001f9","Primary Location","Seilerstätte 19","","Vienna","","A-1010","AT","America/Chicago","mobile_ +43 676 3387145 or +43 1 512 09 10","office@feichtnergallery.com","","-100.445882","39.78373","Item Updated"
"a0WM0000005j9YLMAY","524485088b3b81270a000232","524484da275b24a859000290","Primary Location","Sonnenfelsgasse 6","","Vienna","","1010","AT","Europe/Vienna","+43 1 236 9 236","","","16.375877","48.209533","Item Updated"
"a0WM0000005j9YNMAY","52448b1dcd530e475f00000b","5242ee2cb504f50afc000111","Primary Location","32, Nevsky prospect.","","St. Petersburg","","","RU","Europe/Moscow","+7 (812) 372-6614","","","30.315363","59.939366","Item Updated"
"a0WM0000005j9YOMAY","52448c9fc9dc24955f00000c","5242ee2ab504f50afc0000fd","Moscow","4th Syromyatnichesky lane, 1, bld. 6","","Moscow","","105120","RU","America/Chicago","+7 (495) 775 87 06","","","-100.445882","39.78373","Item Updated"
"a0WM0000005j9YPMAY","52448d56cd530ee29d00000f","5242ee2ab504f50afc000101","Primary Location","7/7-5, Malaya Polyanka","","Moscow","","119180","RU","America/Chicago","+ 7 495 978 32 13, + 7 903 5627241","contact@iragui.com","","-100.445882","39.78373","Item Updated"
"a0WM0000005j9YQMAY","52449069139b214b5a000034","5242ed87b504f50afc0000e9","Primary Location","Passatge Domingo 11","","Barcelona","Barcelona","08007","ES","Europe/Madrid","+34 932 725 130 ","info@tkgaleriadart.com","","2.161965","41.392993","Item Updated"
"a0WM0000005j9YRMAY","52449290cd530efcdf00003a","5242ed65b504f50afc000001","Primary Location","Kucuk Bebek Cad. Cinaralti","Apt. No:2/1 PK.34337 BEBEK","Istanbul","","","TR","America/Chicago","+90 212 265 30 04","","","-100.445882","39.78373","Item Updated"
"a0WM0000005j9YTMAY","5244956f275b2417fd000077","5242ed6ab504f50afc000011","Primary Location","?ehit Mustafa Do?an Sokak 84 / A Y?ld?zevler","Çankaya","Ankara","","","TR","America/Chicago","0 312 438 72 75 - 440 59 60","","","-100.445882","39.78373","Item Updated"
"a0WM0000005j9YUMAY","524496f0275b242839000043","5242ed6bb504f50afc00001d","Primary Location","Via dei Bersaglieri, 5/E","","Bologna","","40125","IT","Europe/Rome","+39 051 229544","","","11.35309","44.490681","Item Updated"
"a0WM0000005j9YVMAY","5244a25f275b2417fd0000fd","5242ed6eb504f50afc00002d","Primary Location","97 Mitropoleos str.","","Thessaloniki","","GR 546 22","GR","America/Chicago","+30 2310 223041","","","-100.445882","39.78373","Item Updated"
"a0WM0000005j9YWMAY","5244a322cd530e475f0000da","5242ed6eb504f50afc000035","Primary Location","Mehringdamm 33 ","","Berlin","","10961","DE","Europe/Berlin","","","","13.38867","52.493412","Item Updated"
"a0WM0000005j9YYMAY","5244a5b19c18db82cb0000a4","5242ed71b504f50afc000049","Primary Location","Vinkratherstr. 77","","Grefrath","","47929","DE","Europe/Berlin","+49 (0) 2158 801350","","","6.33547","51.342056","Item Updated"
"a0WM0000005j9ZbMAI","5244a99fcd530e1af70000f3","5242ed74b504f50afc000061","Primary Location","Kurtulu? Caddesi 141","","Istanbul","","34375","TR","America/Chicago","(90) 212 225 47 02","","","-100.445882","39.78373","Item Updated"
"a0WM0000005j9ZcMAI","5244aa6c7622dd26ee000101","5242ed74b504f50afc00005d","Istanbul","Ayazma Cad. N/4 Fulya","","Istanbul","","34349","TR","America/Chicago","+90 212 227 68 52 ","","","-100.445882","39.78373","Item Updated"
"a0WM0000005j9ZdMAI","5244aac6cd530e20b30000da","5242ed74b504f50afc00005d","Ankara","Gözcü sok. N/7 Ulus","","Ankara","","","TR","America/Chicago","+90 312 311 93 63","","","-100.445882","39.78373","Item Updated"
"a0WM0000005j9ZeMAI","5244acd69c18db4d710000f8","5242ed76b504f50afc000071","Primary Location","Dere Sokak No:3","Arnavutkoy, Besiktas","Istanbul","","34345","TR","America/Chicago","+90 212 263 74 81","","","-100.445882","39.78373","Item Updated"
"a0WM0000005j9ZfMAI","5244af137622dd2d100000e6","5242ed78b504f50afc00007d","Primary Location","Diagonal A Plaza Rplex","","Escazu","","","CR","America/Chicago","","","","-100.445882","39.78373","Item Updated"
"a0WM0000005j9ZhMAI","5244b56d8b3b8100b900013a","5242ed7ab504f50afc000089","Hedemannstr. 14","","","Berlin","","10969","DE","Europe/Berlin","+49 (0) 30 225 027 910","","","13.38886","52.517037","Item Updated"
"a0WM0000005j9ZmMAI","5244be068b3b8100b9000192","5242ed84b504f50afc0000cd","Primary Location","Cemil Topuzlu Cad. No: 90/B Caddebostan","","Istanbul","","","TR","America/Chicago","+ 90 (216) 411 17 13","","","-100.445882","39.78373","Item Updated"
"a0WM0000005j9ZnMAI","5244bed4275b2434070001a0","5242ed84b504f50afc0000d1","Primary Location","Bogazkesen Cad.No.76/B ","Tophane","Istanbul","","","TR","America/Chicago","(0090) 212 252 80 00","","","-100.445882","39.78373","Item Updated"
"a0WM0000005j9ZoMAI","5244bfbd275b2447b400015f","5242ed85b504f50afc0000d9","Primary Location","","","","","","","","","","","","","Item Updated"
"a0WM0000005j97bMAA","5244c0a7275b2434070001b6","5242ed87b504f50afc0000e5","Primary Location","Kavakl?dere Street No: 3/1-2 06540","Kavakl?dere","Ankara","","","TR","America/Chicago","+90 (312) 428 26 41","","","-100.445882","39.78373","Item Updated"
"a0WM0000005j97iMAA","53fcaebd72616977c5f50600","53bc3d29776f724867510000","Primary Location","Via Milano, 128","","Trento","Italy","38122","IT","America/Chicago","+39.0461.984206 / +39.340.5747013","info@arteboccanera.com","","-100.445882","39.78373","Item Updated"
"a0WM0000005j97kMAA","5400b0ef7261692d72d10000","52e6b473139b216d8a0002cf","PE Demo Home","111 N 3rd St","2E","Brooklyn","NY","11249","US","America/New_York","","","","-73.961661","40.716783","Item Updated"
"a0WM0000005j98JMAQ","5416ef4e7261692cd1a90000","510afead4926534fd8000683","Location 3","here we are located!","","brooklyn","","11239","US","America/New_York","","","","-73.949582","40.650104","Item Updated"
"a0WM0000005j98LMAQ","54213d4e72616905943b0400","5419a962726169485ead0000","Location 2","Galerie im Körnerpark","Schierker Straße 8","Berlin","","12051","DE","Europe/Berlin","","","","13.436589","52.471375","Item Updated"
"a0WM0000005j98NMAQ","5420488a72616968eb8c0000","542047f17261696fcf9b0000","The National Arts Club","15 Gramercy Park South","","New York","NY ","10003","US","America/New_York","(212) 475-3424","","","-73.986681","40.737754","Item Updated"
"a0WM0000005j98TMAQ","545a89c87261692ce78d0200","510afead4926534fd8000683","9b9a523d1ea583576f2d9a25e6cff4d7","1234 Happy Lane","","New York","NY","10013","US","America/New_York","","","","-74.00201","40.714275","Item Updated"
"a0WM0000005j98aMAA","54b4b47272616932ebdc0400","54871de1776f726921790200","b6af1fbebf62769ff6e159c4be4af70c","50 Moganshan Rd., M50, 4-105","","Shanghai","","200060","CN","Asia/Shanghai","86 21 62188231","","","121.488892","31.225344","Item Updated"
"a0WM0000005j98gMAA","54ee452f72616940dd000000","54eba8c87261692845a23200","d53bfcd03e327253d62f4c54129172a8","547 West 27th Street, 4th Floor","","New York","NY","10001","US","America/New_York","","","","-73.992824","40.750233","Item Updated"
"a0WM0000005j98hMAA","54f9712472616943a48d3700","5491ec957261697d38f70b00","5bd1d2c0a83cba949bc18254668fd52e","75 & Park","","New York","","10075","US","America/Chicago","","","","-87.200805","30.83852","Item Updated"
"a0WM0000005j98kMAA","5510511e72616939fd7a0500","52d6dee2ebad647dd900023c","053d96f33558f449da84098123f157a3","via Indaco n.23","","Catania","","95100","IT","Europe/Rome","","","","15.080736","37.515353","Item Updated"
"a0WM0000005j98nMAA","5245de7c9c18dba8fe0002d3","52276836ebad64407900028f","Primary Location","102-148 Alexander St","","Vancouver","British Columbia","V6A 1B5","CA","America/Chicago","604-681-2577 ","info@trenchgallery.com","","-100.445882","39.78373","Item Updated"
"a0WM0000005j98wMAA","524a3ca1275b24b685000f03","524a3c1ccd530e3df8000e1c","de Young Museum","50 Hagiwara Tea Garden Dr.","","San Francisco","CA","94118","US","America/Los_Angeles","(415) 750-3600","","","-122.468616","37.771596","Item Updated"
"a0WM0000005j98xMAA","524a3f97cd530ee013000f0d","524a3f167622dde954000d92","MAK Center for Art and Architecture at the Schindler House","835 N Kings Rd.","","West Hollywood","CA","90069","US","America/Los_Angeles","(323) 651-1510","","","-118.361744","34.090009","Item Updated"
"a0WM0000005j98yMAA","524a435acd530e87c8000f3f","524a42927622ddba10001014","Museu de Arte de Rio (MAR)","Praça Mauá, 5, Centro","","Rio de Janeiro","","CEP 20081-240","BR","America/Chicago","","","","-100.445882","39.78373","Item Updated"
"a0WM0000005j98zMAA","524a4c91139b21162e000f4a","5217c24f275b24af07000092","Mad. Sq. Art","23rd Street and 5th Avenue","","New York","NY","10010","US","America/Chicago","","","","-100.445882","39.78373","Item Updated"
"a0WM0000005j990MAA","524b2e6fc9dc24ec3e0001c1","5227682febad64407900023b","Primary Location","104 Richmond St. West,","Suite 104","Toronto","Ontario","M5V 3A8","CA","America/Chicago","416-504-8238","sales@openstudio.on.ca","416-504-8238","-100.445882","39.78373","Item Updated"
"a0WM0000005j994MAA","52506d5bb202a3c36f00062c","52276822ebad644079000197","Primary Location","372 Ste-Catherine West","","Montréal","Québec","H3B 1A2","CA","America/Chicago","514-373-2027","info@galerienicolasrobert.com","","-100.445882","39.78373","Item Updated"
"a0WM0000005j995MAA","5250a0d9139b214dc40006db","52276835ebad644079000287","Primary Location","401 Richmond St. West, suite 115","","Toronto","ON","M5V 3A8","CA","America/Chicago","416.504.5654","art@redheadgallery.org","","-100.445882","39.78373","Item Updated"
"a0WM0000005j998MAA","525314d78b3b811d6f00008f","522669aaebad64d4a60001ab","Primary Location","P.O. Box 13410","","Fairlawn","OH","44334","US","America/Chicago","330.867.1679","thomasfrenchfineart.com@gmail.com","330.867.1666","-100.445882","39.78373","Item Updated"
"a0WM0000005j99AMAQ","5255bc338b3b8195a2000ba8","52276832ebad64407900025b","Location 2","Wynwood Lofts #208","250 NW 23rd St.","Miami","FL","33127","US","America/Chicago","267-303-9652","info@projectsgallery.com","","-100.445882","39.78373","Item Updated"
"a0WM0000005j99DMAQ","5256fcd87622dd8ea80002ba","5227681debad64407900015f","Primary Location","65 George Street","","Toronto","Ontario","M5A 4L8","CA","America/Chicago","(416) 323-1373","gallery@feheleyfinearts.com","(647) 361-7667","-100.445882","39.78373","Item Updated"
"a0WM0000005j99LMAQ","5259942b7622ddf5490001fd","5227681debad64407900015b","Location 3","7200 du Quartier, suite 40","","Brossard","Quebec","J4Y 0B5","CA","America/Chicago","450 678 5558","","450 678 5580","-100.445882","39.78373","Item Updated"
"a0WM0000005j99wMAA","525c06d8275b24616200034b","525c06b0139b216b9000038d","Primary Location","Burhaniye mah. Beybostan? sok. no:41 A Blok Zemin Kat Beylerbeyi Üsküdar","","Istanbul","","","TR","America/Chicago","+90 216 557 72 07","","","-100.445882","39.78373","Item Updated"
"a0WM0000005j9A1MAI","52605581275b24ebdd00006a","5227681cebad644079000157","Primary Location","1450 Dundas Street West","","Toronto","Ontario","M6J 1Y6","CA","America/Chicago","647-345-6163","info@erinstumpprojects.com","","-100.445882","39.78373","Item Updated"
"a0WM0000005j9A6MAI","5266c64b8b3b81d614000196","5266c60c139b215455000132","Primary Location","7a 16th Line","","Rostov-on-Don","","344019","RU","Europe/Moscow","+7 (863) 250-68-41","","","39.702286","47.224861","Item Updated"
"a0WM0000005j9A9MAI","526ab1967622dd7d6d00013b","526ab13c7622dd2839000122","Stay Gallery","11140 Downey Ave.","","Downey","CA","90241","US","America/Los_Angeles","(562) 774-2056","","","-118.132831","33.940226","Item Updated"
"a0WM0000005j9AAMAY","526b3f9b9c18dbb7e400038d","52447e6bcd530e102d0001b9","Location 6","17 Fuzhou Lu","G/F (near Zhongshan Dong Yi Lu)","Shanghai","Shanghai","200002","CN","America/Chicago","","contact@island6.org","","-100.445882","39.78373","Item Updated"
"a0WM0000005j9ABMAY","526d4bb88b3b8126f70008d9","52533817ebad64dcac00006b","Primary Location","Gancho camino 4 sur, 2 este, 1/2 sur. ","Barrio Campo Bruce","Managua","","","NI","America/Chicago","505 88679362","patricia.belli@gmail.com","","-100.445882","39.78373","Item Updated"
"a0WM0000005j9ADMAY","526e8075c9dc244f6b0000ba","526e8042275b24d2a2000dc3","Primary Locations","BÜTTEN STR. 3","","Baden-Baden","","76530","DE","Europe/Berlin","","","","8.239894","48.762311","Item Updated"
"a0WM0000005j9AEMAY","526edb368b3b8126f7000d77","526eda9e139b217158000e46","Second Location","Piazza Duomo 25","","Pietrasanta","","55045","IT","Europe/Rome","+39 0584 792666","","","10.231605","43.95726","Item Updated"
"a0WM0000005j9AIMAY","5272a3ecc9dc24ab9800002d","5272a393275b24d81100002f","Galerie Crèvecœur","4 rue Jouye-Rouve","","Paris","","75020 ","FR","America/Chicago","+33(0)9 54 57 31 26","","","-100.445882","39.78373","Item Updated"
"a0WM0000005j9AJMAY","5272a68a9c18dbb35400002d","5272a61d139b21e94700003c","Mary-Anne Martin Fine Art","23 East 73rd Street","","New York","NY","10021","US","America/New_York","(212) 288-2213","","","-73.965208","40.772787","Item Updated"
"a0WM0000005j9ALMAY","5272ae40139b21b353000070","5272ad7bcd530edcce000036","Galleria Zero","","","Milan","","","IT","Europe/Rome","+39 02 87234577 ","info@galleriazero.it","","9.190498","45.466797","Item Updated"
"a0WM0000005j9AUMAY","528bdbf9c9dc2445c1000136","527a75d6ebad6442e100001d","Primary Location","255 Ocean ave","","Brooklyn","New York","11225","US","America/New_York","917-669-3208","flyingcarpets@hotmail.com","","-73.961888","40.656844","Item Updated"
"a0WM0000005j9AZMAY","52939138c9dc24d78c000006","5271519c221393626100000f","Primary Location","Bródy Sándor u. 22.","","Budapest","","1088","HU","Europe/Budapest","+36 30 212 8080","info@molnaranigaleria.hu","","19.064663","47.492521","Item Updated"
"a0WM0000005j9AaMAI","529508779c18db286c000076","52950721139b21d1d8000078","Kolodzei Art Foundation","123 South Adelaide Avenue #1N","","Highland Park","NJ","08904","US","America/New_York","","","","-74.424318","40.495938","Item Updated"
"a0WM0000005j9AeMAI","52a888a7b202a39abd000268","523b1e62ebad645d6500001e","Galerie Alain Marcelpoil","15 Rue de Miromesnil","","Paris","","75008","FR","Europe/Paris","+33 9 52 72 99 94","","","2.315969","48.872188","Item Updated"
"a0WM0000005j9AgMAI","52aabcf58b3b810e5c000158","528f7f879c18dbd9670002f1","Primary Location","NO.4 Jiuxianqiao Rd, 798 Art District, Chaoyang Dist","","Beijing","","100015","CN","America/Chicago","86 10 59789671","spacestationart@163.com","","-100.445882","39.78373","Item Updated"
"a0WM0000005j9AiMAI","52ab6bde7622dd5193000101","524cb6f7139b219e1a000637","Primary","949 W Fulton Market","","Chicago","IL","60607","","America/Chicago","","","","-87.654511","41.886706","Item Updated"
"a0WM0000005j9AlMAI","521bba65a09a671ac9000295","520a99f9275b240778000005","Primary Location","405 Broome St","","New York","New York","10013","US","America/New_York","212 343 2600","info@mattermatters.com","212 343 2610","-73.997911","40.720817","Item Updated"
"a0WM0000005j9AmMAI","528e8a4c275b24cf480000d2","52865418275b245ffd0004a8","Primary Location","518 West 19th Street","","New York","NY","10011","US","America/New_York","212-967-8040","info@lombardfreid.com","212-967-0669","-74.006483","40.745358","Item Updated"
"a0WM0000005j9AtMAI","5282cbe6cd530e3a03000060","525336c8ebad64dcac00002f","Primary Location","2630 NW 2nd. Avenue","","Miami","Fl","33127","US","America/New_York","1 305 438 0220","info@alejandravonhartz.net","1 305 573 9249","-80.199224","25.801712","Item Updated"
"a0WM0000005j9BQMAY","528b9a8d9c18db79f700000f","528b9a2a8b3b81433a000001","NYC","401 Broadway","","New York","NYC","10013","US","America/New_York","---","","","-74.002574","40.71881","Item Updated"
"a0WM0000005j9BTMAY","52909f449c18dbc024000138","527151a2221393626100004c","Primary Location","Admiralitätstraße 71","","Hamburg","","20459","DE","Europe/Berlin","+49 (0)40 378232","info@produzentengalerie.com","","9.984656","53.548671","Item Updated"
"a0WM0000005j9BYMAY","52aa1f7f8b3b814604000270","523b1e64ebad645d6500002e","Primary","30 Rue de Seine","","Paris","","75006","FR","Europe/Paris","","","","2.336698","48.855507","Item Updated"
"a0WM0000005j9BZMAY","52aa1fed8b3b8135de000298","523b1e67ebad645d6500004a","Secondary","12 Rue des Beaux Arts","","Paris","","75006","FR","Europe/Paris","+33 1 40 46 82 40","","","2.335116","48.856467","Item Updated"
"a0WM0000005j9BaMAI","52aa26ee275b246df4000007","523b1e5eebad645d65000002","Primary","14 Rutland Gate","","London","","SW7 1BB","GB","Europe/London","+44 20 75 81 98 88","","","-0.168603","51.500193","Item Updated"
"a0WM0000005j9BcMAI","52ab6a417622ddb2c10000b1","523b1e67ebad645d6500004e","Primary","4 Bis, Rue des Beaux-Arts Paris","","Paris","","75006","FR","Europe/Paris","","","","2.335009","48.856435","Item Updated"
"a0WM0000005j9BjMAI","5244865a7622dd2d5600026a","524485a98b3b8137f20001ff","Norway","Son Espace Gallery - Norway (Arena Vestfossen)","Fabrikkgata, 9","Vestfossen","","3320","NO","America/Chicago","+47 91 39 80 80","norway@sonespace.com","","-100.445882","39.78373","Item Updated"
"a0WM0000005j9BkMAI","525f87cacd530ee7aa000296","52533812ebad64dcac000043","Primary Location","Level 3, 17–19 Alberta Street","","Sydney","NSW","2000","AU","America/Chicago","+61 9283 1113","","","-100.445882","39.78373","Item Updated"
"a0WM0000005j9BoMAI","526ea936275b24846d000e43","52533810ebad64dcac000037","Primary Location","Alonso de Cordova 2600 Piso 2, oficina 23","","Santiago","Vitacura","6670194","CL","America/Chicago","56-2-2062177","artespacio@artespacio.cl","","-100.445882","39.78373","Item Updated"
"a0WM0000005j9BpMAI","526edbf38b3b819122000eed","526edbc7139b215386001027","Operating Office","Akatlar Mah. Zeytinoglu Cad.","Arzu-2 Apt. No:25 Daire:25","Istanbul","","","TR","America/Chicago","+90 (212) 223 30 23","","","-100.445882","39.78373","Item Updated"
"a0WM0000005j9BqMAI","526ff59b139b219d6c0003ea","506358790c09cc00020003f1","Primary Location","18 Rue de Seine","","Paris","","","FR","Europe/Paris","","","","2.336576","48.856029","Item Updated"
"a0WM0000005j9BsMAI","528102117622dd13e8000022","5281018c8b3b81c584000027","Elgiz Museum of Contemporary Art","Meydan Sokak Beybi Giz Plaza B Blok Maslak","","Istanbul","","34398","TR","Europe/Istanbul","","","","29.020391","41.109726","Item Updated"
"a0WM0000005j9BtMAI","5284d0209c18dbcebe00013f","524cb74c139b219e1a000641","Primary Location","23 rue Ernest Allard","Francis Janssens van der Maelen","Brussels","","1000","BE","Europe/Brussels","","","","4.354313","50.840035","Item Updated"
"a0WM0000005j9ByMAI","52ab7a8aa09a67e4c1000112","52ab79277622ddb2c1000108","Protocinema","Westbeth Building Basement","55 Bethune St. at Washington St.","New York","NY","10014","","America/New_York","","","","-74.008605","40.736805","Item Updated"
"a0WM0000005j9BzMAI","52b188669c18dba1ab000031","52b0e0579c18dbb3860001d9","Primary Location","Salon Kennedy - Cultural Avenue HQ","","Frankfurt am Main","","60596","DE","America/Chicago","","","","-100.445882","39.78373","Item Updated"
"a0WM0000005j9C3MAI","52b212c1a09a67805900004f","524cb72ab202a3d256000682","Primary","5th Floor, North Side, 7–10 Chandos Street","Cavendish Square","London","","W1G 9DQ","GB","America/Chicago","","","","-100.445882","39.78373","Item Updated"
"a0WM0000005j9C5MAI","526add73139b213fcb000178","52533820ebad64dcac0000bb","Primary Location","José Manuel Infante 1428","","Santiago","Región Metropolitana","751256","CL","America/Chicago","","info@tallerbloc.cl","","-100.445882","39.78373","Item Updated"
"a0WM0000005j9CDMAY","5246e756139b21ea270004fa","52276834ebad644079000277","Primary Location","1273 Hollis St.","","Halifax","Nova Scotia","B3J 1T7","CA","America/Chicago","(902) 420-1852","fineart@studio21.ca","(902) 420-0715","-100.445882","39.78373","Item Updated"
"a0WM0000005j9CHMAY","525effe69c18dbc99c0000ee","52533820ebad64dcac0000bf","Primary Location","5ta ave. 11-16 zona 1","Edificio Passarelli, 2do nivel","Guatemala","Guatemala","01001","GT","America/Chicago","+(502) 2238-3975","joselopez@the9.99.gt","+(502) 2238-4712","-100.445882","39.78373","Item Updated"
"a0WM0000005j9CKMAY","526aecde139b21a13c000283","5253381cebad64dcac00009f","Primary Location","Calle Arenales 319","","Santa Cruz de la Sierra","Santa Cruz","00000","BO","America/Chicago","+1 - 7864402737","info@nubegallery.com","","-100.445882","39.78373","Item Updated"
"a0WM0000005j9CyMAI","52b2bda19c18db5aef0000a1","52b0e0579c18dbb3860001d9","Location 3","KuWi - Kunstverein Wiesen","Schloss Wiesen","Wiesen","","63831","DE","America/Chicago","","","","-100.445882","39.78373","Item Updated"
"a0WM0000005j9D1MAI","52b34250a09a672ebf0000d4","52b32707cd530e20a10001e5","Location 2","New York Apt","","New York","NY ","10014","","America/New_York","","","","-73.997071","40.735479","Item Updated"
"a0WM0000005j9D3MAI","52b4b933a09a670192000157","52b4b6f48b3b813acc00023a","Center for Arts Education","266 West 37th Street, 9th Floor","","New York","NY","10018","","America/New_York","","","","-73.991744","40.753909","Item Updated"
"a0WM0000005j9DAMAY","52cc7d82a09a675bd1000161","52b7c57cebad6427d5000849","Primary","595 Madison Ave.","","New York","NY","10022","","America/New_York","","","","-73.972068","40.762442","Item Updated"
"a0WM0000005j9DBMAY","52cc874e8b3b81605d000144","52b7c59bebad6427d50008ce","Primary","3075 Sacramento Street","","San Francisco","CA","94115","","America/Los_Angeles","","","","-122.443443","37.788551","Item Updated"
"a0WM0000005j9DCMAY","52cc8837139b21d71b000148","52b7c5a4ebad6427d50008f5","New York","55 Great Jones Street","","New York","NY","10012","","America/New_York","","","","-73.992463","40.726428","Item Updated"
"a0WM0000005j9DEMAY","52cd8cf9a09a67f6d5000134","52b7c59febad6427d50008e8","Primary","6819 Melrose Ave.","","Los Angeles","CA","90038","","America/Los_Angeles","","","","-118.340892","34.083529","Item Updated"
"a0WM0000005j9DHMAY","52cf3684139b21df7a000444","52cc3f2f01925b7017000059","Primary Location","620 Kearny Street","","San Francisco","California","94108","US","America/Los_Angeles","415-269-4873","projects.et.al@gmail.com","","-122.404561","37.793812","Item Updated"
"a0WM0000005j9DJMAY","52c7386fb202a3edf10000a4","52b7c5a6ebad6427d5000902","Primary Location","1999 Bryant Street","","San Francisco","CA","94110","","America/Los_Angeles","415.621.2344","whats@thenwblk.com","(415) 621-2344","-122.410027","37.761888","Item Updated"
"a0WM0000005j9DLMAY","52d575978b3b81297d000081","52b7bb55ebad6427d5000223","Primary Location","Galeries Bartoux Singapore","ION Orchard, 2 Orchard Turn # 01-12A/13","Singapore","","238801","","Asia/Singapore","","","","103.832013","1.303973","Item Updated"
"a0WM0000005j9DNMAY","52d6f274b202a308b200005f","52977ec5b202a36beb0002b6","Location 3","The List Visual Art Center","20 Ames Street ","Cambridge","MA","02139","US","America/Chicago","","","","-100.445882","39.78373","Item Updated"
"a0WM0000005j9DOMAY","52d7e14da09a67382a00000b","52cc774aebad64e73f00004b","Primary Location","c/ pintor fortuny, 27  ","","Barcelona","","08001","ES","America/Chicago","+34 93 412 54 00","info@angelsbarcelona.com","","-100.445882","39.78373","Item Updated"
"a0WM0000005j9DSMAY","52dd63c27622dd4e0e000071","52cc77aaebad64e73f000393","Primary Location","4310 N Miami Av. #4","Miami Design District","Miami","Florida","33127","US","America/Chicago","786-565-7237","info@odabashian.com","","-100.445882","39.78373","Item Updated"
"a0WM0000005j9DUMAY","52de991e9acc8ac59b00050f","52de97737622dd7fbe000039","Parasol unit","14 Wharf Road ","","London ","","N1 7RW","GB","Europe/London","+ 44 (0) 207 490 7373","info@parasol-unit.org","","-0.095503","51.530716","Item Updated"
"a0WM0000005j9DYMAY","52e0f04bcd530e01d90003a4","52d6e33aebad647dd900084a","Primary Location","Monte Esquinza 25","","Madrid","","28010","ES","Europe/Madrid","+34913085986","info@nfgaleria.com","","-3.692015","40.428797","Item Updated"
"a0WM0000005j9DaMAI","52e152647622ddeb22000047","52cc77b3ebad64e73f0003d8","Primary Location","Lafontaine 73, Polanco","","Mexico City","","11560","MX","America/Mexico_City","52906345","info@patriciacondegaleria.com","","-99.13321","19.43253","Item Updated"
"a0WM0000005j9DcMAI","52e1a92d9c18db833d000025","52cc7790ebad64e73f0002bb","Primary Location","Córdoba 25 Roma Norte","","Mexico City","Mexico","06700","MX","America/Mexico_City","","","","-99.164723","19.403461","Item Updated"
"a0WM0000005j9DdMAI","52e13a74275b24af9400045b","52cc7766ebad64e73f000142","Location 2","c/ Dr Fourquet 6","","Madrid","Madrid","28012","ES","America/Chicago","915272415","sara@bacelos.com ","","-100.445882","39.78373","Item Updated"
"a0WM0000005j9DeMAI","52e2c6a04b84801d2600026d","52cc7754ebad64e73f0000a1","Primary Location","Reforma s/n esq. Constitución,","Interior Jardín Etnobotánico de Oaxaca","Oaxaca de Juárez","Oaxaca","68000","MX","America/Chicago","+52 951 514 4193","info@cdo.gob.mx","","-100.445882","39.78373","Item Updated"
"a0WM0000005j9DhMAI","52e78ce7a09a6779af000078","52cc77b5ebad64e73f0003f2","Primary Location","LOPE DE VEGA, 29. ","","MADRID","","28014","ES","America/Chicago","+91 420 34 22 // +34 657 027 759","contacto@galeriapaulaalonso.com","","-100.445882","39.78373","Item Updated"
"a0WM0000005j9DjMAI","52eacba0cd530eba260000aa","52377d2b139b21a2e7000598","Primary Location","stetinova, 1","","Bratislava","","81106","SK","America/Chicago","+421948799383","info@amtproject.sk","","-100.445882","39.78373","Item Updated"
"a0WM0000005j9eEMAQ","52f10a68b202a3d92b000002","52d6e345ebad647dd9000893","Primary Location","Trg prekomorskih brigad 1","","Ljubljana","","1000","SI","Europe/Ljubljana","+38640370199","p74info@zavod-parasite.si","","14.489172","46.069328","Item Updated"
"a0WM0000005j9eHMAQ","52f227d48b3b8174dd0000b1","52d6e302ebad647dd90006d3","Primary Location","Prinzessinnenstr. 29","","Berlin","","10969","DE","Europe/Berlin","+49 (0) 30 40 50 49 53","info@klemms-berlin.com","+49 (0) 30 40 50 49 54","13.413863","52.501629","Item Updated"
"a0WM0000005j9eRMAQ","52f5299aa09a67434a0002d6","52d6e03debad647dd900037e","Primary Location","Jovellanos 3, Bajo","","Gijón","Asturias","33202","ES","Europe/Madrid","+ 34 985 17 50 53","nuria@espacioliquido.com","","-5.662644","43.545039","Item Updated"
"a0WM0000005j9eTMAQ","52f92f41275b24900400011d","52f8f6acc9dc249b220000c3","Kiasma Museum of Contemporary Art ","Mannerheiminaukio 2","","Helsinki","","FIN-00100","FI","Europe/Helsinki","","","","24.936696","60.172008","Item Updated"
"a0WM0000005j9eUMAQ","52fa5a0e8b3b8121be000195","52f216a4a09a67bd20000059","Primary Location","c/Enrique Granados 49","","Barcelona","","08008","ES","America/Chicago","+34 934510064","info@adngaleria.com","","-100.445882","39.78373","Item Updated"
"a0WM0000005j9eVMAQ","52faa8aa139b21aaf900011d","52fa5084c9dc247177000194","Japan Society","333 E 47th St","","New York,","NY","10017","","America/New_York","","","","-73.968249","40.752599","Item Updated"
"a0WM0000005j9eYMAQ","52fd382ccd530e8a68000018","52fd36f5275b248f28000005","Princeton University Art Museum","McCormick Hall","Princeton University","Princeton","New Jersey","08544","US","America/Chicago","","","","-100.445882","39.78373","Item Updated"
"a0WM0000005j9eeMAA","53052b277622ddc5e9000128","52b7bdcaebad6427d50004c8","Primary Location","798 Tung St, 798 Art District","Chaoyang District","Beijing","","","CN","America/Chicago","?86 15011241566","tongwalton@126.com","","-100.445882","39.78373","Item Updated"
"a0WM0000005j9ehMAA","52cc895c275b244f35000151","52b7c5a8ebad6427d500090f","Primary","249 Hickory Street","","San Francisco","CA","94102","","America/Los_Angeles","415.565.6767","info@cdloffice.com","","-122.423489","37.775296","Item Updated"
"a0WM0000005j9eoMAA","53110788cd530ea48800007a","530e351b8b3b8151fd00005e","Primary Location","17 North Venice Blvd","","Los Angeles","CA","90291","US","America/Chicago","310.281.0981","info@shulamitnazarian.com","","-100.445882","39.78373","Item Updated"
